loop_index,last_step_ns,imu_time_ns,bmp_time_ns,epoch_time_ns,v_batt,alt_bmp_raw,bmp_temp,gyro_roll,gyro_pitch,gyro_yaw,accel_X,accel_Y,accel_Z,mag_X, mag_Y, mag_Z,roll,pitch,yaw,rollDot,pitchDot,yawDot,X,Y,Z,Xdot,Ydot,Zdot,Zddot,xbee_time,xbee_time_received_ns,xbee_x,xbee_y,xbee_z,xbee_qw,xbee_qx,xbee_qy,xbee_qz,xbee_roll,xbee_pitch,xbee_yaw,gps_lat,gps_lon,gps_gpsAlt,gps_ned_x,gps_ned_y,gps_ned_z,gps_spd,gps_fix,gps_sat,gps_headingNc,gps_cog,gps_gpsVsi,gps_hdop,gps_vdop,gps_year,gps_month,gps_day,gps_hour,gps_minute,gps_second,gps_time_received_ns,X_thrt,Y_thrt,Z_thrt,roll_thrt,pitch_thrt,yaw_thrt,sp_roll_dot,sp_pitch_dot,sp_yaw_dot,sp_roll_dot_ff,sp_pitch_dot_ff,sp_yaw_dot_ff,sp_roll,sp_pitch,sp_yaw,sp_roll_ff,sp_pitch_ff,sp_X,sp_Y,sp_Z,sp_Xdot,sp_Ydot,sp_Zdot,sp_Xdot_ff,sp_Ydot_ff,sp_Zdot_ff,sp_Xddot,sp_Yddot,sp_Zddot,u_roll,u_pitch,u_yaw,u_X,u_Y,u_Z,mot_1,mot_2,mot_3,mot_4,dsm_con,flight_mode,tIMU,tIMU_END,tSM,tXBEE,tGPS,tPNI,tNAV,tGUI,tCTR,tLOG,tNTP
1,1749740677952530145,1749740677950832093,1749740677950832093,1749740677952535269,16.4622,560.8423,33.8000,0.0117,-0.0192,0.0075,-0.4526,0.0885,-9.5099,0.0000,0.0000,0.0000,0.0679,-0.1416,0.0917,0.0121,-0.0179,0.0068,0.0223,0.0764,-0.1046,-0.0001,-0.0001,-0.0000,0.0000,4151581101,1749740677951022061,0.0223,0.0764,-0.1046,0.9989,0.0008,-0.0008,0.0458,0.0000,0.0000,0.0000,0.00000000,0.00000000,0.000,0.000,0.000,0.000,0.000,0,0,0.000,0.000,0.000,0.000,0.000,0,0,0,0,0,0,0,0.0000,0.0000,-0.0500,0.0000,0.0000,0.0400,-0.0997,0.1943,0.0000,0.0000,0.0000,0.0000,0.0000,0.0000,0.0000,0.0000,0.0000,0.0000,0.0000,0.0000,0.0000,0.0000,0.0000,0.0000,0.0000,0.0000,0.0000,0.0000,0.0000,0.0000,0.0000,0.0400,0.0000,0.0000,-0.0500,0.2361,0.2361,0.1748,0.1748,1,5,1749740677950836883,1749740677946299217,1749740677951047557,1749740677951029852,1749740677951059305,1749740677951061055,1749740677951385709,1749740677952496317,1749740677952531437,1749740677946297301,0
2,1749740677956791607,1749740677956201954,1749740677956201954,1749740677956796273,16.4631,560.8423,33.8000,0.0138,-0.0170,0.0064,-0.4478,0.1005,-9.5314,0.0000,0.0000,0.0000,0.0679,-0.1416,0.0917,0.0127,-0.0176,0.0066,0.0223,0.0764,-0.1046,-0.0000,-0.0002,-0.0000,0.0000,4151588293,1749740677956392256,0.0223,0.0764,-0.1046,0.9989,0.0008,-0.0008,0.0458,0.0000,0.0000,0.0000,0.00000000,0.00000000,0.000,0.000,0.000,0.000,0.000,0,0,0.000,0.000,0.000,0.000,0.000,0,0,0,0,0,0,0,0.0000,0.0000,-0.0500,0.0000,0.0000,0.0400,-0.0997,0.1943,0.0000,0.0000,0.0000,0.0000,0.0000,0.0000,0.0000,0.0000,0.0000,0.0000,0.0000,0.0000,0.0000,0.0000,0.0000,0.0000,0.0000,0.0000,0.0000,0.0000,0.0000,0.0000,0.0000,0.0400,0.0000,0.0000,-0.0500,0.2361,0.2361,0.1748,0.1748,1,5,1749740677956206412,1749740677952549559,1749740677956417710,1749740677956400172,1749740677956428917,1749740677956431000,1749740677956752197,1749740677956758529,1749740677956792773,1749740677952547767,0
3,1749740677961136180,1749740677960698961,1749740677960698961,1749740677961140846,16.4619,560.8423,33.8000,0.0107,-0.0160,0.0064,-0.4287,0.0909,-9.5242,0.0000,0.0000,0.0000,0.0679,-0.1416,0.0917,0.0120,-0.0171,0.0066,0.0223,0.0764,-0.1046,-0.0000,-0.0002,-0.0000,0.0000,4151588293,1749740677956392256,0.0223,0.0764,-0.1046,0.9989,0.0008,-0.0008,0.0458,0.0000,0.0000,0.0000,0.00000000,0.00000000,0.000,0.000,0.000,0.000,0.000,0,0,0.000,0.000,0.000,0.000,0.000,0,0,0,0,0,0,0,0.0000,0.0000,-0.0500,0.0000,0.0000,0.0400,-0.0997,0.1943,0.0000,0.0000,0.0000,0.0000,0.0000,0.0000,0.0000,0.0000,0.0000,0.0000,0.0000,0.0000,0.0000,0.0000,0.0000,0.0000,0.0000,0.0000,0.0000,0.0000,0.0000,0.0000,0.0000,0.0400,0.0000,0.0000,-0.0500,0.2361,0.2361,0.1748,0.1748,1,5,1749740677960703626,1749740677956810395,1749740677960758617,1749740677960745953,1749740677960769949,1749740677960771699,1749740677961097186,1749740677961103185,1749740677961137346,1749740677956808312,0
4,1749740677966364523,1749740677965699633,1749740677965699633,1749740677966369523,16.4610,560.8423,33.8000,0.0128,-0.0149,0.0064,-0.4335,0.0957,-9.4646,0.0000,0.0000,0.0000,0.0679,-0.1416,0.0917,0.0123,-0.0163,0.0065,0.0223,0.0764,-0.1046,-0.0000,-0.0002,-0.0001,0.0000,4151597639,1749740677965884478,0.0223,0.0764,-0.1046,0.9989,0.0008,-0.0008,0.0458,0.0000,0.0000,0.0000,0.00000000,0.00000000,0.000,0.000,0.000,0.000,0.000,0,0,0.000,0.000,0.000,0.000,0.000,0,0,0,0,0,0,0,0.0000,0.0000,-0.0500,0.0000,0.0000,0.0400,-0.0997,0.1943,0.0000,0.0000,0.0000,0.0000,0.0000,0.0000,0.0000,0.0000,0.0000,0.0000,0.0000,0.0000,0.0000,0.0000,0.0000,0.0000,0.0000,0.0000,0.0000,0.0000,0.0000,0.0000,0.0000,0.0400,0.0000,0.0000,-0.0500,0.2361,0.2361,0.1748,0.1748,1,5,1749740677965704466,1749740677961156802,1749740677965909390,1749740677965892768,1749740677965920805,1749740677965922555,1749740677966323822,1749740677966330737,1749740677966365732,1749740677961154719,0
5,1749740677971428311,1749740677970952765,1749740677970952765,1749740677971433310,16.4602,560.8423,33.8000,0.0138,-0.0181,0.0064,-0.4167,0.0933,-9.5314,0.0000,0.0000,0.0000,0.0679,-0.1416,0.0917,0.0128,-0.0169,0.0065,0.0223,0.0764,-0.1046,-0.0000,-0.0002,-0.0001,0.0000,4151597639,1749740677965884478,0.0223,0.0764,-0.1046,0.9989,0.0008,-0.0008,0.0458,0.0000,0.0000,0.0000,0.00000000,0.00000000,0.000,0.000,0.000,0.000,0.000,0,0,0.000,0.000,0.000,0.000,0.000,0,0,0,0,0,0,0,0.0000,0.0000,-0.0500,0.0000,0.0000,0.0400,-0.0997,0.1943,0.0000,0.0000,0.0000,0.0000,0.0000,0.0000,0.0000,0.0000,0.0000,0.0000,0.0000,0.0000,0.0000,0.0000,0.0000,0.0000,0.0000,0.0000,0.0000,0.0000,0.0000,0.0000,0.0000,0.0400,0.0000,0.0000,-0.0500,0.2361,0.2361,0.1748,0.1748,1,5,1749740677970957222,1749740677966385353,1749740677971050207,1749740677971037667,1749740677971061872,1749740677971063663,1749740677971389192,1749740677971395150,1749740677971429519,1749740677966383479,0
6,1749740677976255679,1749740677975677025,1749740677975677025,1749740677976260387,16.4540,560.8715,33.8000,0.0117,-0.0160,0.0043,-0.3832,0.1244,-9.5290,0.0000,0.0000,0.0000,0.0679,-0.1416,0.0917,0.0124,-0.0166,0.0057,0.0223,0.0764,-0.1046,-0.0001,-0.0002,-0.0000,0.0000,4151605238,1749740677975858953,0.0223,0.0764,-0.1046,0.9989,0.0008,-0.0008,0.0458,0.0000,0.0000,0.0000,0.00000000,0.00000000,0.000,0.000,0.000,0.000,0.000,0,0,0.000,0.000,0.000,0.000,0.000,0,0,0,0,0,0,0,0.0000,0.0000,-0.0500,0.0000,0.0000,0.0400,-0.0997,0.1943,0.0000,0.0000,0.0000,0.0000,0.0000,0.0000,0.0000,0.0000,0.0000,0.0000,0.0000,0.0000,0.0000,0.0000,0.0000,0.0000,0.0000,0.0000,0.0000,0.0000,0.0000,0.0000,0.0000,0.0400,0.0000,0.0000,-0.0500,0.2361,0.2361,0.1748,0.1748,1,5,1749740677975681441,1749740677972135819,1749740677975884491,1749740677975866993,1749740677975896197,1749740677975898030,1749740677976216769,1749740677976223309,1749740677976256887,1749740677971446225,0
7,1749740677982008436,1749740677981407369,1749740677981407369,1749740677982013102,16.4467,560.8715,33.8000,0.0160,-0.0202,0.0075,-1.0729,-0.3613,-9.5051,0.0000,0.0000,0.0000,0.0679,-0.1416,0.0917,0.0136,-0.0178,0.0063,0.0223,0.0764,-0.1046,-0.0001,-0.0002,-0.0000,0.0000,4151605238,1749740677975858953,0.0223,0.0764,-0.1046,0.9989,0.0008,-0.0008,0.0458,0.0000,0.0000,0.0000,0.00000000,0.00000000,0.000,0.000,0.000,0.000,0.000,0,0,0.000,0.000,0.000,0.000,0.000,0,0,0,0,0,0,0,0.0000,0.0000,-0.0500,0.0000,0.0000,0.0400,-0.0997,0.1943,0.0000,0.0000,0.0000,0.0000,0.0000,0.0000,0.0000,0.0000,0.0000,0.0000,0.0000,0.0000,0.0000,0.0000,0.0000,0.0000,0.0000,0.0000,0.0000,0.0000,0.0000,0.0000,0.0000,0.0400,0.0000,0.0000,-0.0500,0.2361,0.2361,0.1748,0.1748,1,5,1749740677981411868,1749740677976275468,1749740677981533598,1749740677981521017,1749740677981545179,1749740677981546971,1749740677981968484,1749740677981974442,1749740677982009602,1749740677976273510,0
8,1749740677986298726,1749740677985683078,1749740677985683078,1749740677986303476,16.4375,560.8715,33.8000,0.0053,-0.0202,0.0021,0.1605,0.6149,-9.9656,0.0000,0.0000,0.0000,0.0679,-0.1416,0.0917,0.0109,-0.0186,0.0049,0.0223,0.0764,-0.1046,-0.0000,-0.0001,-0.0001,0.0000,4151614430,1749740677985814098,0.0223,0.0764,-0.1046,0.9989,0.0008,-0.0008,0.0458,0.0000,0.0000,0.0000,0.00000000,0.00000000,0.000,0.000,0.000,0.000,0.000,0,0,0.000,0.000,0.000,0.000,0.000,0,0,0,0,0,0,0,0.0000,0.0000,-0.0500,0.0000,0.0000,0.0400,-0.0997,0.1943,0.0000,0.0000,0.0000,0.0000,0.0000,0.0000,0.0000,0.0000,0.0000,0.0000,0.0000,0.0000,0.0000,0.0000,0.0000,0.0000,0.0000,0.0000,0.0000,0.0000,0.0000,0.0000,0.0000,0.0400,0.0000,0.0000,-0.0500,0.2361,0.2361,0.1748,0.1748,1,5,1749740677985687786,1749740677982027933,1749740677985838886,1749740677985822013,1749740677985850384,1749740677985852133,1749740677986258900,1749740677986265065,1749740677986299934,1749740677982026058,0
9,1749740677991159547,1749740677990579560,1749740677990579560,1749740677991164338,16.4293,560.8715,33.8000,0.0085,0.0043,-0.0234,-0.8047,0.7848,-9.6292,0.0000,0.0000,0.0000,0.0678,-0.1415,0.0917,0.0101,-0.0110,-0.0045,0.0223,0.0764,-0.1046,-0.0001,-0.0001,-0.0001,0.0000,4151622329,1749740677990762405,0.0223,0.0764,-0.1046,0.9989,0.0008,-0.0008,0.0458,0.0000,0.0000,0.0000,0.00000000,0.00000000,0.000,0.000,0.000,0.000,0.000,0,0,0.000,0.000,0.000,0.000,0.000,0,0,0,0,0,0,0,0.0000,0.0000,-0.0500,0.0000,0.0000,0.0400,-0.0997,0.1943,0.0000,0.0000,0.0000,0.0000,0.0000,0.0000,0.0000,0.0000,0.0000,0.0000,0.0000,0.0000,0.0000,0.0000,0.0000,0.0000,0.0000,0.0000,0.0000,0.0000,0.0000,0.0000,0.0000,0.0400,0.0000,0.0000,-0.0500,0.2361,0.2361,0.1748,0.1748,1,5,1749740677990584351,1749740677986317890,1749740677990788775,1749740677990770987,1749740677990800690,1749740677990802481,1749740677991120429,1749740677991127303,1749740677991160755,1749740677986316015,0
10,1749740677996001121,1749740677995573109,1749740677995573109,1749740677996005829,16.4218,560.8715,33.8000,0.0373,-0.0181,-0.0234,-0.7664,0.2871,-8.6582,0.0000,0.0000,0.0000,0.0679,-0.1415,0.0917,0.0191,-0.0134,-0.0108,0.0223,0.0764,-0.1046,-0.0001,-0.0001,-0.0001,0.0000,4151622329,1749740677990762405,0.0223,0.0764,-0.1046,0.9989,0.0008,-0.0008,0.0458,0.0000,0.0000,0.0000,0.00000000,0.00000000,0.000,0.000,0.000,0.000,0.000,0,0,0.000,0.000,0.000,0.000,0.000,0,0,0,0,0,0,0,0.0000,0.0000,-0.0500,0.0000,0.0000,0.0400,-0.0997,0.1943,0.0000,0.0000,0.0000,0.0000,0.0000,0.0000,0.0000,0.0000,0.0000,0.0000,0.0000,0.0000,0.0000,0.0000,0.0000,0.0000,0.0000,0.0000,0.0000,0.0000,0.0000,0.0000,0.0000,0.0400,0.0000,0.0000,-0.0500,0.2361,0.2361,0.1748,0.1748,1,5,1749740677995577650,1749740677991179169,1749740677995625559,1749740677995612394,1749740677995637182,1749740677995638973,1749740677995962878,1749740677995969085,1749740677996002330,1749740677991177253,0
11,1749740678001326116,1749740678000742754,1749740678000742754,1749740678001331157,16.4131,560.8715,33.8000,0.0138,-0.0394,0.0107,-0.7400,0.9355,-9.2403,0.0000,0.0000,0.0000,0.0679,-0.1416,0.0917,0.0174,-0.0221,-0.0037,0.0223,0.0764,-0.1046,-0.0000,-0.0001,0.0000,0.0000,4151631447,1749740678000926682,0.0223,0.0764,-0.1046,0.9989,0.0008,-0.0008,0.0458,0.0000,0.0000,0.0000,0.00000000,0.00000000,0.000,0.000,0.000,0.000,0.000,0,0,0.000,0.000,0.000,0.000,0.000,0,0,0,0,0,0,0,0.0000,0.0000,-0.0500,0.0000,0.0000,0.0400,-0.0997,0.1943,0.0000,0.0000,0.0000,0.0000,0.0000,0.0000,0.0000,0.0000,0.0000,0.0000,0.0000,0.0000,0.0000,0.0000,0.0000,0.0000,0.0000,0.0000,0.0000,0.0000,0.0000,0.0000,0.0000,0.0400,0.0000,0.0000,-0.0500,0.2361,0.2361,0.1748,0.1748,1,5,1749740678000747336,1749740677996021326,1749740678000951803,1749740678000934597,1749740678000963551,1749740678000965342,1749740678001286789,1749740678001293038,1749740678001327365,1749740677996019410,0
12,1749740678006518466,1749740678005840244,1749740678005840244,1749740678006523132,16.4044,560.8715,33.8000,0.0128,-0.0341,0.0288,-1.6405,0.3134,-7.3531,0.0000,0.0000,0.0000,0.0678,-0.1418,0.0917,0.0158,-0.0261,0.0071,0.0223,0.0764,-0.1046,-0.0001,0.0000,-0.0001,0.0000,4151638721,1749740678006030504,0.0223,0.0764,-0.1046,0.9989,0.0008,-0.0008,0.0458,0.0000,0.0000,0.0000,0.00000000,0.00000000,0.000,0.000,0.000,0.000,0.000,0,0,0.000,0.000,0.000,0.000,0.000,0,0,0,0,0,0,0,0.0000,0.0000,-0.0500,0.0000,0.0000,0.0400,-0.0997,0.1943,0.0000,0.0000,0.0000,0.0000,0.0000,0.0000,0.0000,0.0000,0.0000,0.0000,0.0000,0.0000,0.0000,0.0000,0.0000,0.0000,0.0000,0.0000,0.0000,0.0000,0.0000,0.0000,0.0000,0.0400,0.0000,0.0000,-0.0500,0.2361,0.2361,0.1748,0.1748,1,5,1749740678005845160,1749740678001346654,1749740678006056417,1749740678006038711,1749740678006068123,1749740678006069914,1749740678006478889,1749740678006484971,1749740678006519632,1749740678001344821,0
13,1749740678011352048,1749740678010917661,1749740678010917661,1749740678011357172,16.3887,560.8715,33.8000,-0.0224,-0.0021,0.0138,-0.1030,0.3541,-8.4244,0.0000,0.0000,0.0000,0.0676,-0.1418,0.0917,0.0031,-0.0181,0.0094,0.0223,0.0764,-0.1046,-0.0001,0.0000,-0.0001,0.0000,4151638721,1749740678006030504,0.0223,0.0764,-0.1046,0.9989,0.0008,-0.0008,0.0458,0.0000,0.0000,0.0000,0.00000000,0.00000000,0.000,0.000,0.000,0.000,0.000,0,0,0.000,0.000,0.000,0.000,0.000,0,0,0,0,0,0,0,0.0000,0.0000,-0.0500,0.0000,0.0000,0.0400,-0.0997,0.1943,0.0000,0.0000,0.0000,0.0000,0.0000,0.0000,0.0000,0.0000,0.0000,0.0000,0.0000,0.0000,0.0000,0.0000,0.0000,0.0000,0.0000,0.0000,0.0000,0.0000,0.0000,0.0000,0.0000,0.0400,0.0000,0.0000,-0.0500,0.2361,0.2361,0.1748,0.1748,1,5,1749740678010922118,1749740678006539087,1749740678010977151,1749740678010964153,1749740678010988441,1749740678010990315,1749740678011312679,1749740678011318595,1749740678011353256,1749740678006537129,0
14,1749740678016560566,1749740678015970746,1749740678015970746,1749740678016565273,16.3730,560.8715,33.8000,0.0128,-0.0202,0.0788,-0.5149,0.3326,-8.2025,0.0000,0.0000,0.0000,0.0675,-0.1419,0.0917,0.0063,-0.0188,0.0325,0.0223,0.0764,-0.1046,-0.0001,-0.0001,-0.0001,0.0000,4151647552,1749740678016160548,0.0223,0.0764,-0.1046,0.9989,0.0008,-0.0008,0.0458,0.0000,0.0000,0.0000,0.00000000,0.00000000,0.000,0.000,0.000,0.000,0.000,0,0,0.000,0.000,0.000,0.000,0.000,0,0,0,0,0,0,0,0.0000,0.0000,-0.0500,0.0000,0.0000,0.0400,-0.0997,0.1943,0.0000,0.0000,0.0000,0.0000,0.0000,0.0000,0.0000,0.0000,0.0000,0.0000,0.0000,0.0000,0.0000,0.0000,0.0000,0.0000,0.0000,0.0000,0.0000,0.0000,0.0000,0.0000,0.0000,0.0400,0.0000,0.0000,-0.0500,0.2361,0.2361,0.1748,0.1748,1,5,1749740678015975204,1749740678011372711,1749740678016186669,1749740678016168797,1749740678016198042,1749740678016200042,1749740678016521031,1749740678016526946,1749740678016561774,1749740678011370336,0
15,1749740678021517667,1749740678021042246,1749740678021042246,1749740678021522375,16.3602,560.8715,33.8000,0.0405,-0.0021,0.0415,0.6514,1.2920,-9.8845,0.0000,0.0000,0.0000,0.0676,-0.1418,0.0917,0.0177,-0.0132,0.0355,0.0223,0.0764,-0.1046,-0.0001,-0.0001,-0.0001,0.0000,4151647552,1749740678016160548,0.0223,0.0764,-0.1046,0.9989,0.0008,-0.0008,0.0458,0.0000,0.0000,0.0000,0.00000000,0.00000000,0.000,0.000,0.000,0.000,0.000,0,0,0.000,0.000,0.000,0.000,0.000,0,0,0,0,0,0,0,0.0000,0.0000,-0.0500,0.0000,0.0000,0.0400,-0.0997,0.1943,0.0000,0.0000,0.0000,0.0000,0.0000,0.0000,0.0000,0.0000,0.0000,0.0000,0.0000,0.0000,0.0000,0.0000,0.0000,0.0000,0.0000,0.0000,0.0000,0.0000,0.0000,0.0000,0.0000,0.0400,0.0000,0.0000,-0.0500,0.2361,0.2361,0.1748,0.1748,1,5,1749740678021046703,1749740678016580104,1749740678021139188,1749740678021126607,1749740678021151186,1749740678021153019,1749740678021478424,1749740678021484340,1749740678021518876,1749740678016578146,0
16,1749740678026179692,1749740678025542297,1749740678025542297,1749740678026185525,16.3488,560.8715,33.8000,0.0107,-0.0394,0.0714,-0.1317,0.6197,-10.0229,0.0000,0.0000,0.0000,0.0674,-0.1418,0.0916,0.0154,-0.0220,0.0475,0.0223,0.0764,-0.1046,-0.0001,0.0000,-0.0000,0.0000,4151655099,1749740678025694814,0.0223,0.0764,-0.1046,0.9990,0.0008,-0.0008,0.0458,0.0000,0.0000,0.0000,0.00000000,0.00000000,0.000,0.000,0.000,0.000,0.000,0,0,0.000,0.000,0.000,0.000,0.000,0,0,0,0,0,0,0,0.0000,0.0000,-0.0500,0.0000,0.0000,0.0400,-0.0997,0.1943,0.0000,0.0000,0.0000,0.0000,0.0000,0.0000,0.0000,0.0000,0.0000,0.0000,0.0000,0.0000,0.0000,0.0000,0.0000,0.0000,0.0000,0.0000,0.0000,0.0000,0.0000,0.0000,0.0000,0.0400,0.0000,0.0000,-0.0500,0.2361,0.2361,0.1748,0.1748,1,5,1749740678025546755,1749740678022273002,1749740678025720934,1749740678025702771,1749740678025732641,1749740678025734391,1749740678026054171,1749740678026060879,1749740678026181900,1749740678021534998,0
17,1749740678031349259,1749740678030849549,1749740678030849549,1749740678031353966,16.3372,560.8715,33.8000,0.0011,-0.0277,0.0107,-1.1543,0.0479,-8.4530,0.0000,0.0000,0.0000,0.0673,-0.1419,0.0916,0.0106,-0.0239,0.0352,0.0223,0.0764,-0.1046,-0.0001,0.0000,-0.0000,0.0000,4151655099,1749740678025694814,0.0223,0.0764,-0.1046,0.9990,0.0008,-0.0008,0.0458,0.0000,0.0000,0.0000,0.00000000,0.00000000,0.000,0.000,0.000,0.000,0.000,0,0,0.000,0.000,0.000,0.000,0.000,0,0,0,0,0,0,0,0.0000,0.0000,-0.0500,0.0000,0.0000,0.0400,-0.0997,0.1943,0.0000,0.0000,0.0000,0.0000,0.0000,0.0000,0.0000,0.0000,0.0000,0.0000,0.0000,0.0000,0.0000,0.0000,0.0000,0.0000,0.0000,0.0000,0.0000,0.0000,0.0000,0.0000,0.0000,0.0400,0.0000,0.0000,-0.0500,0.2361,0.2361,0.1748,0.1748,1,5,1749740678030854090,1749740678026200439,1749740678030967655,1749740678030954865,1749740678030979403,1749740678030981236,1749740678031309057,1749740678031315639,1749740678031350425,1749740678026198648,0
18,1749740678036704795,1749740678036172007,1749740678036172007,1749740678036709419,16.3280,560.8715,33.8000,-0.0149,-0.0213,0.0501,-1.1064,1.5624,-8.7083,0.0000,0.0000,0.0000,0.0672,-0.1420,0.0914,0.0021,-0.0230,0.0402,0.0223,0.0764,-0.1046,-0.0002,0.0000,0.0001,0.0000,4151663858,1749740678036302111,0.0223,0.0764,-0.1046,0.9990,0.0008,-0.0008,0.0457,0.0000,0.0000,0.0000,0.00000000,0.00000000,0.000,0.000,0.000,0.000,0.000,0,0,0.000,0.000,0.000,0.000,0.000,0,0,0,0,0,0,0,0.0000,0.0000,-0.0500,0.0000,0.0000,0.0400,-0.0997,0.1943,0.0000,0.0000,0.0000,0.0000,0.0000,0.0000,0.0000,0.0000,0.0000,0.0000,0.0000,0.0000,0.0000,0.0000,0.0000,0.0000,0.0000,0.0000,0.0000,0.0000,0.0000,0.0000,0.0000,0.0400,0.0000,0.0000,-0.0500,0.2361,0.2361,0.1748,0.1748,1,5,1749740678036176382,1749740678031370089,1749740678036327482,1749740678036310193,1749740678036338896,1749740678036340646,1749740678036665134,1749740678036671675,1749740678036705961,1749740678031367756,0
19,1749740678041149647,1749740678040571575,1749740678040571575,1749740678041154354,16.3198,560.8715,33.8000,0.0000,0.0043,0.0437,-0.2658,-0.4307,-7.4223,0.0000,0.0000,0.0000,0.0669,-0.1419,0.0915,0.0014,-0.0139,0.0413,0.0223,0.0764,-0.1045,-0.0005,-0.0002,0.0006,0.0000,4151672247,1749740678040754212,0.0223,0.0764,-0.1045,0.9990,0.0008,-0.0007,0.0457,0.0000,0.0000,0.0000,0.00000000,0.00000000,0.000,0.000,0.000,0.000,0.000,0,0,0.000,0.000,0.000,0.000,0.000,0,0,0,0,0,0,0,0.0000,0.0000,-0.0500,0.0000,0.0000,0.0400,-0.0997,0.1943,0.0000,0.0000,0.0000,0.0000,0.0000,0.0000,0.0000,0.0000,0.0000,0.0000,0.0000,0.0000,0.0000,0.0000,0.0000,0.0000,0.0000,0.0000,0.0000,0.0000,0.0000,0.0000,0.0000,0.0400,0.0000,0.0000,-0.0500,0.2361,0.2361,0.1748,0.1748,1,5,1749740678040576075,1749740678036724250,1749740678040779791,1749740678040762086,1749740678040791997,1749740678040793747,1749740678041111653,1749740678041117694,1749740678041150855,1749740678036722250,0
20,1749740678046360332,1749740678045887993,1749740678045887993,1749740678046365456,16.3111,560.8715,33.8000,0.0170,0.0043,0.0149,-0.0503,-0.6771,-9.9083,0.0000,0.0000,0.0000,0.0670,-0.1418,0.0915,0.0066,-0.0079,0.0325,0.0223,0.0764,-0.1045,-0.0005,-0.0002,0.0006,0.0000,4151672247,1749740678040754212,0.0223,0.0764,-0.1045,0.9990,0.0008,-0.0007,0.0457,0.0000,0.0000,0.0000,0.00000000,0.00000000,0.000,0.000,0.000,0.000,0.000,0,0,0.000,0.000,0.000,0.000,0.000,0,0,0,0,0,0,0,0.0000,0.0000,-0.0500,0.0000,0.0000,0.0400,-0.0997,0.1943,0.0000,0.0000,0.0000,0.0000,0.0000,0.0000,0.0000,0.0000,0.0000,0.0000,0.0000,0.0000,0.0000,0.0000,0.0000,0.0000,0.0000,0.0000,0.0000,0.0000,0.0000,0.0000,0.0000,0.0400,0.0000,0.0000,-0.0500,0.2361,0.2361,0.1748,0.1748,1,5,1749740678045893117,1749740678041169185,1749740678045941650,1749740678045929069,1749740678045953315,1749740678045955107,1749740678046321546,1749740678046327545,1749740678046361540,1749740678041167269,0
21,1749740678051525690,1749740678050942495,1749740678050942495,1749740678051530440,16.3036,560.8715,33.8000,0.0021,-0.0192,-0.0469,-0.3065,0.1579,-8.2407,0.0000,0.0000,0.0000,0.0671,-0.1418,0.0918,0.0051,-0.0116,0.0061,0.0223,0.0764,-0.1045,-0.0005,-0.0002,0.0006,0.0000,4151681149,1749740678051127756,0.0223,0.0764,-0.1045,0.9989,0.0008,-0.0007,0.0459,0.0000,0.0000,0.0000,0.00000000,0.00000000,0.000,0.000,0.000,0.000,0.000,0,0,0.000,0.000,0.000,0.000,0.000,0,0,0,0,0,0,0,0.0000,0.0000,-0.0500,0.0000,0.0000,0.0400,-0.0997,0.1943,0.0000,0.0000,0.0000,0.0000,0.0000,0.0000,0.0000,0.0000,0.0000,0.0000,0.0000,0.0000,0.0000,0.0000,0.0000,0.0000,0.0000,0.0000,0.0000,0.0000,0.0000,0.0000,0.0000,0.0400,0.0000,0.0000,-0.0500,0.2361,0.2361,0.1748,0.1748,1,5,1749740678050946911,1749740678046380620,1749740678051151877,1749740678051135713,1749740678051163667,1749740678051165458,1749740678051485655,1749740678051491654,1749740678051526940,1749740678046378370,0
22,1749740678056602564,1749740678056129683,1749740678056129683,1749740678056607271,16.2975,560.8715,33.8000,0.0234,-0.0426,-0.0352,-0.9125,0.1436,-9.7294,0.0000,0.0000,0.0000,0.0671,-0.1419,0.0918,0.0112,-0.0220,-0.0077,0.0223,0.0764,-0.1045,-0.0005,-0.0002,0.0006,0.0000,4151681149,1749740678051127756,0.0223,0.0764,-0.1045,0.9989,0.0008,-0.0007,0.0459,0.0000,0.0000,0.0000,0.00000000,0.00000000,0.000,0.000,0.000,0.000,0.000,0,0,0.000,0.000,0.000,0.000,0.000,0,0,0,0,0,0,0,0.0000,0.0000,-0.0500,0.0000,0.0000,0.0400,-0.0997,0.1943,0.0000,0.0000,0.0000,0.0000,0.0000,0.0000,0.0000,0.0000,0.0000,0.0000,0.0000,0.0000,0.0000,0.0000,0.0000,0.0000,0.0000,0.0000,0.0000,0.0000,0.0000,0.0000,0.0000,0.0400,0.0000,0.0000,-0.0500,0.2361,0.2361,0.1748,0.1748,1,5,1749740678056134141,1749740678051545687,1749740678056226584,1749740678056214044,1749740678056237832,1749740678056239623,1749740678056562279,1749740678056568778,1749740678056603772,1749740678051543729,0
23,1749740678061490176,1749740678060940642,1749740678060940642,1749740678061495342,16.2915,560.8715,33.8000,0.0117,-0.0160,-0.0469,-1.4226,0.4163,-8.4172,0.0000,0.0000,0.0000,0.0672,-0.1419,0.0923,0.0114,-0.0200,-0.0207,0.0223,0.0764,-0.1046,-0.0004,-0.0001,0.0002,0.0000,4151688413,1749740678061091617,0.0223,0.0764,-0.1046,0.9989,0.0009,-0.0007,0.0461,0.0000,0.0000,0.0000,0.00000000,0.00000000,0.000,0.000,0.000,0.000,0.000,0,0,0.000,0.000,0.000,0.000,0.000,0,0,0,0,0,0,0,0.0000,0.0000,-0.0500,0.0000,0.0000,0.0400,-0.0997,0.1943,0.0000,0.0000,0.0000,0.0000,0.0000,0.0000,0.0000,0.0000,0.0000,0.0000,0.0000,0.0000,0.0000,0.0000,0.0000,0.0000,0.0000,0.0000,0.0000,0.0000,0.0000,0.0000,0.0000,0.0400,0.0000,0.0000,-0.0500,0.2361,0.2361,0.1748,0.1748,1,5,1749740678060945058,1749740678056622394,1749740678061115696,1749740678061099532,1749740678061127236,1749740678061128986,1749740678061450058,1749740678061456349,1749740678061491385,1749740678056620477,0
24,1749740678066886956,1749740678066298219,1749740678066298219,1749740678066891663,16.2867,560.8715,33.8000,0.0032,0.0021,-0.0330,-0.4119,1.2633,-9.1520,0.0000,0.0000,0.0000,0.0671,-0.1419,0.0928,0.0087,-0.0126,-0.0248,0.0223,0.0764,-0.1047,-0.0005,-0.0000,-0.0010,0.0000,4151696918,1749740678066488146,0.0223,0.0764,-0.1047,0.9989,0.0010,-0.0007,0.0464,0.0000,0.0000,0.0000,0.00000000,0.00000000,0.000,0.000,0.000,0.000,0.000,0,0,0.000,0.000,0.000,0.000,0.000,0,0,0,0,0,0,0,0.0000,0.0000,-0.0500,0.0000,0.0000,0.0400,-0.0997,0.1943,0.0000,0.0000,0.0000,0.0000,0.0000,0.0000,0.0000,0.0000,0.0000,0.0000,0.0000,0.0000,0.0000,0.0000,0.0000,0.0000,0.0000,0.0000,0.0000,0.0000,0.0000,0.0000,0.0000,0.0400,0.0000,0.0000,-0.0500,0.2361,0.2361,0.1748,0.1748,1,5,1749740678066302677,1749740678061510923,1749740678066513934,1749740678066496561,1749740678066525640,1749740678066527431,1749740678066847420,1749740678066853461,1749740678066888164,1749740678061508757,0
25,1749740678071966870,1749740678071436832,1749740678071436832,1749740678071971744,16.2794,560.8715,33.8000,0.0213,0.0064,-0.0138,0.0910,-0.2847,-9.4980,0.0000,0.0000,0.0000,0.0671,-0.1418,0.0928,0.0129,-0.0063,-0.0212,0.0223,0.0764,-0.1047,-0.0005,-0.0000,-0.0010,0.0000,4151696918,1749740678066488146,0.0223,0.0764,-0.1047,0.9989,0.0010,-0.0007,0.0464,0.0000,0.0000,0.0000,0.00000000,0.00000000,0.000,0.000,0.000,0.000,0.000,0,0,0.000,0.000,0.000,0.000,0.000,0,0,0,0,0,0,0,0.0000,0.0000,-0.0500,0.0000,0.0000,0.0400,-0.0997,0.1943,0.0000,0.0000,0.0000,0.0000,0.0000,0.0000,0.0000,0.0000,0.0000,0.0000,0.0000,0.0000,0.0000,0.0000,0.0000,0.0000,0.0000,0.0000,0.0000,0.0000,0.0000,0.0000,0.0000,0.0400,0.0000,0.0000,-0.0500,0.2361,0.2361,0.1748,0.1748,1,5,1749740678071441290,1749740678066907994,1749740678071592307,1749740678071579850,1749740678071603471,1749740678071605263,1749740678071926835,1749740678071933126,1749740678071968078,1749740678066906036,0
26,1749740678075853689,1749740678075365561,1749740678075365561,1749740678075858688,16.2789,560.8231,33.8000,0.0383,-0.0202,-0.0160,-0.5412,-1.5887,-9.4145,0.0000,0.0000,0.0000,0.0672,-0.1418,0.0931,0.0214,-0.0109,-0.0194,0.0223,0.0765,-0.1047,-0.0006,0.0001,-0.0014,0.0000,4151705835,1749740678075455338,0.0223,0.0765,-0.1047,0.9989,0.0009,-0.0007,0.0465,0.0000,0.0000,0.0000,0.00000000,0.00000000,0.000,0.000,0.000,0.000,0.000,0,0,0.000,0.000,0.000,0.000,0.000,0,0,0,0,0,0,0,0.0000,0.0000,-0.0500,0.0000,0.0000,0.0400,-0.0997,0.1943,0.0000,0.0000,0.0000,0.0000,0.0000,0.0000,0.0000,0.0000,0.0000,0.0000,0.0000,0.0000,0.0000,0.0000,0.0000,0.0000,0.0000,0.0000,0.0000,0.0000,0.0000,0.0000,0.0000,0.0400,0.0000,0.0000,-0.0500,0.2361,0.2361,0.1748,0.1748,1,5,1749740678075369977,1749740678072836394,1749740678075480250,1749740678075463212,1749740678075491707,1749740678075493707,1749740678075815445,1749740678075821569,1749740678075855147,1749740678071985575,0
27,1749740678081491137,1749740678080926021,1749740678080926021,1749740678081495886,16.2792,560.8231,33.8000,-0.0053,-0.0181,-0.0170,-1.0777,0.6077,-8.1595,0.0000,0.0000,0.0000,0.0673,-0.1418,0.0931,0.0125,-0.0133,-0.0186,0.0223,0.0765,-0.1047,-0.0006,0.0001,-0.0014,0.0000,4151705835,1749740678075455338,0.0223,0.0765,-0.1047,0.9989,0.0009,-0.0007,0.0465,0.0000,0.0000,0.0000,0.00000000,0.00000000,0.000,0.000,0.000,0.000,0.000,0,0,0.000,0.000,0.000,0.000,0.000,0,0,0,0,0,0,0,0.0000,0.0000,-0.0500,0.0000,0.0000,0.0400,-0.0997,0.1943,0.0000,0.0000,0.0000,0.0000,0.0000,0.0000,0.0000,0.0000,0.0000,0.0000,0.0000,0.0000,0.0000,0.0000,0.0000,0.0000,0.0000,0.0000,0.0000,0.0000,0.0000,0.0000,0.0000,0.0400,0.0000,0.0000,-0.0500,0.2361,0.2361,0.1748,0.1748,1,5,1749740678080930396,1749740678075873727,1749740678081114907,1749740678081102367,1749740678081126405,1749740678081128238,1749740678081450977,1749740678081457101,1749740678081492345,1749740678075871811,0
28,1749740678086759312,1749740678086292472,1749740678086292472,1749740678086764020,16.2818,560.8231,33.8000,-0.0266,-0.0064,0.0458,-0.3928,0.4020,-10.7195,0.0000,0.0000,0.0000,0.0671,-0.1418,0.0931,-0.0006,-0.0110,0.0028,0.0223,0.0765,-0.1048,-0.0004,0.0001,-0.0015,0.0000,4151714266,1749740678086360169,0.0223,0.0765,-0.1048,0.9989,0.0008,-0.0007,0.0465,0.0000,0.0000,0.0000,0.00000000,0.00000000,0.000,0.000,0.000,0.000,0.000,0,0,0.000,0.000,0.000,0.000,0.000,0,0,0,0,0,0,0,0.0000,0.0000,-0.0500,0.0000,0.0000,0.0400,-0.0997,0.1943,0.0000,0.0000,0.0000,0.0000,0.0000,0.0000,0.0000,0.0000,0.0000,0.0000,0.0000,0.0000,0.0000,0.0000,0.0000,0.0000,0.0000,0.0000,0.0000,0.0000,0.0000,0.0000,0.0000,0.0400,0.0000,0.0000,-0.0500,0.2361,0.2361,0.1748,0.1748,1,5,1749740678086296888,1749740678081510967,1749740678086385832,1749740678086368210,1749740678086397122,1749740678086398913,1749740678086720027,1749740678086725943,1749740678086760520,1749740678081509092,0
29,1749740678091078810,1749740678090495281,1749740678090495281,1749740678091084101,16.2833,560.8231,33.8000,0.0160,-0.0107,0.0522,0.7927,0.1483,-8.7560,0.0000,0.0000,0.0000,0.0670,-0.1417,0.0927,0.0049,-0.0109,0.0193,0.0223,0.0764,-0.1048,0.0000,-0.0001,-0.0015,0.0000,4151722500,1749740678090678292,0.0223,0.0764,-0.1048,0.9989,0.0008,-0.0007,0.0463,0.0000,0.0000,0.0000,0.00000000,0.00000000,0.000,0.000,0.000,0.000,0.000,0,0,0.000,0.000,0.000,0.000,0.000,0,0,0,0,0,0,0,0.0000,0.0000,-0.0500,0.0000,0.0000,0.0400,-0.0997,0.1943,0.0000,0.0000,0.0000,0.0000,0.0000,0.0000,0.0000,0.0000,0.0000,0.0000,0.0000,0.0000,0.0000,0.0000,0.0000,0.0000,0.0000,0.0000,0.0000,0.0000,0.0000,0.0000,0.0000,0.0400,0.0000,0.0000,-0.0500,0.2361,0.2361,0.1748,0.1748,1,5,1749740678090499988,1749740678086778601,1749740678090703913,1749740678090686125,1749740678090715245,1749740678090717328,1749740678091038442,1749740678091045024,1749740678091080226,1749740678086776643,0
30,1749740678096074947,1749740678095639393,1749740678095639393,1749740678096079612,16.2852,560.8231,33.8000,0.0607,-0.0213,0.0224,-0.4239,-1.6006,-9.3310,0.0000,0.0000,0.0000,0.0672,-0.1417,0.0927,0.0235,-0.0144,0.0203,0.0223,0.0764,-0.1048,0.0000,-0.0001,-0.0015,0.0000,4151722500,1749740678090678292,0.0223,0.0764,-0.1048,0.9989,0.0008,-0.0007,0.0463,0.0000,0.0000,0.0000,0.00000000,0.00000000,0.000,0.000,0.000,0.000,0.000,0,0,0.000,0.000,0.000,0.000,0.000,0,0,0,0,0,0,0,0.0000,0.0000,-0.0500,0.0000,0.0000,0.0400,-0.0997,0.1943,0.0000,0.0000,0.0000,0.0000,0.0000,0.0000,0.0000,0.0000,0.0000,0.0000,0.0000,0.0000,0.0000,0.0000,0.0000,0.0000,0.0000,0.0000,0.0000,0.0000,0.0000,0.0000,0.0000,0.0400,0.0000,0.0000,-0.0500,0.2361,0.2361,0.1748,0.1748,1,5,1749740678095643892,1749740678091099515,1749740678095698717,1749740678095685594,1749740678095710507,1749740678095712298,1749740678096035286,1749740678096041285,1749740678096076113,1749740678091097140,0
31,1749740678100989847,1749740678100398652,1749740678100398652,1749740678100994554,16.2879,560.8231,33.8000,-0.0011,-0.0437,0.0128,-1.3364,0.1244,-10.6623,0.0000,0.0000,0.0000,0.0673,-0.1418,0.0920,0.0153,-0.0241,0.0178,0.0223,0.0764,-0.1047,0.0002,-0.0002,-0.0010,0.0000,4151731653,1749740678100589371,0.0223,0.0764,-0.1047,0.9989,0.0008,-0.0008,0.0460,0.0000,0.0000,0.0000,0.00000000,0.00000000,0.000,0.000,0.000,0.000,0.000,0,0,0.000,0.000,0.000,0.000,0.000,0,0,0,0,0,0,0,0.0000,0.0000,-0.0500,0.0000,0.0000,0.0400,-0.0997,0.1943,0.0000,0.0000,0.0000,0.0000,0.0000,0.0000,0.0000,0.0000,0.0000,0.0000,0.0000,0.0000,0.0000,0.0000,0.0000,0.0000,0.0000,0.0000,0.0000,0.0000,0.0000,0.0000,0.0000,0.0400,0.0000,0.0000,-0.0500,0.2361,0.2361,0.1748,0.1748,1,5,1749740678100403110,1749740678096094902,1749740678100615533,1749740678100597661,1749740678100627031,1749740678100629198,1749740678100949895,1749740678100956519,1749740678100991013,1749740678096092985,0
32,1749740678105929534,1749740678105466985,1749740678105466985,1749740678105934242,16.2920,560.8231,33.8000,-0.0213,-0.0064,0.0597,-0.5939,1.4212,-8.4792,0.0000,0.0000,0.0000,0.0671,-0.1418,0.0920,0.0031,-0.0182,0.0318,0.0223,0.0764,-0.1047,0.0002,-0.0002,-0.0010,0.0000,4151731653,1749740678100589371,0.0223,0.0764,-0.1047,0.9989,0.0008,-0.0008,0.0460,0.0000,0.0000,0.0000,0.00000000,0.00000000,0.000,0.000,0.000,0.000,0.000,0,0,0.000,0.000,0.000,0.000,0.000,0,0,0,0,0,0,0,0.0000,0.0000,-0.0500,0.0000,0.0000,0.0400,-0.0997,0.1943,0.0000,0.0000,0.0000,0.0000,0.0000,0.0000,0.0000,0.0000,0.0000,0.0000,0.0000,0.0000,0.0000,0.0000,0.0000,0.0000,0.0000,0.0000,0.0000,0.0000,0.0000,0.0000,0.0000,0.0400,0.0000,0.0000,-0.0500,0.2361,0.2361,0.1748,0.1748,1,5,1749740678105471443,1749740678101009135,1749740678105557054,1749740678105544306,1749740678105568718,1749740678105570426,1749740678105890374,1749740678105896623,1749740678105930701,1749740678101007177,0
33,1749740678111602226,1749740678111038194,1749740678111038194,1749740678111606934,16.3029,560.8231,33.8000,0.0522,0.0149,0.0469,0.6610,-0.3134,-7.5965,0.0000,0.0000,0.0000,0.0671,-0.1417,0.0917,0.0195,-0.0072,0.0368,0.0223,0.0764,-0.1046,0.0001,-0.0004,-0.0002,0.0000,4151738772,1749740678111198501,0.0223,0.0764,-0.1046,0.9989,0.0007,-0.0010,0.0458,0.0000,0.0000,0.0000,0.00000000,0.00000000,0.000,0.000,0.000,0.000,0.000,0,0,0.000,0.000,0.000,0.000,0.000,0,0,0,0,0,0,0,0.0000,0.0000,-0.0500,0.0000,0.0000,0.0400,-0.0997,0.1943,0.0000,0.0000,0.0000,0.0000,0.0000,0.0000,0.0000,0.0000,0.0000,0.0000,0.0000,0.0000,0.0000,0.0000,0.0000,0.0000,0.0000,0.0000,0.0000,0.0000,0.0000,0.0000,0.0000,0.0400,0.0000,0.0000,-0.0500,0.2361,0.2361,0.1748,0.1748,1,5,1749740678111042651,1749740678105949947,1749740678111223872,1749740678111206375,1749740678111235703,1749740678111237494,1749740678111561608,1749740678111567773,1749740678111603434,1749740678105947823,0
34,1749740678116359694,1749740678115686971,1749740678115686971,1749740678116364651,16.3133,560.8231,33.8000,0.0671,-0.0437,-0.0533,-0.8981,-2.2514,-9.6292,0.0000,0.0000,0.0000,0.0675,-0.1417,0.0915,0.0354,-0.0193,0.0068,0.0223,0.0764,-0.1046,0.0005,-0.0003,0.0002,0.0000,4151747279,1749740678115958843,0.0223,0.0764,-0.1046,0.9990,0.0007,-0.0010,0.0457,0.0000,0.0000,0.0000,0.00000000,0.00000000,0.000,0.000,0.000,0.000,0.000,0,0,0.000,0.000,0.000,0.000,0.000,0,0,0,0,0,0,0,0.0000,0.0000,-0.0500,0.0000,0.0000,0.0400,-0.0997,0.1943,0.0000,0.0000,0.0000,0.0000,0.0000,0.0000,0.0000,0.0000,0.0000,0.0000,0.0000,0.0000,0.0000,0.0000,0.0000,0.0000,0.0000,0.0000,0.0000,0.0000,0.0000,0.0000,0.0000,0.0400,0.0000,0.0000,-0.0500,0.2361,0.2361,0.1748,0.1748,1,5,1749740678115691679,1749740678111621473,1749740678115981881,1749740678115966925,1749740678115993587,1749740678115995379,1749740678116320117,1749740678116326449,1749740678116360860,1749740678111619515,0
35,1749740678121724520,1749740678121182400,1749740678121182400,1749740678121729477,16.3212,560.8231,33.8000,-0.0746,-0.0575,-0.0405,-1.4321,1.5695,-8.5747,0.0000,0.0000,0.0000,0.0673,-0.1420,0.0915,-0.0013,-0.0321,-0.0090,0.0223,0.0764,-0.1046,0.0005,-0.0003,0.0002,0.0000,4151747279,1749740678115958843,0.0223,0.0764,-0.1046,0.9990,0.0007,-0.0010,0.0457,0.0000,0.0000,0.0000,0.00000000,0.00000000,0.000,0.000,0.000,0.000,0.000,0,0,0.000,0.000,0.000,0.000,0.000,0,0,0,0,0,0,0,0.0000,0.0000,-0.0500,0.0000,0.0000,0.0400,-0.0997,0.1943,0.0000,0.0000,0.0000,0.0000,0.0000,0.0000,0.0000,0.0000,0.0000,0.0000,0.0000,0.0000,0.0000,0.0000,0.0000,0.0000,0.0000,0.0000,0.0000,0.0000,0.0000,0.0000,0.0000,0.0400,0.0000,0.0000,-0.0500,0.2361,0.2361,0.1748,0.1748,1,5,1749740678121186858,1749740678116379357,1749740678121341499,1749740678121329168,1749740678121352664,1749740678121354414,1749740678121684485,1749740678121690442,1749740678121725728,1749740678116377441,0
36,1749740678126215489,1749740678125656248,1749740678125656248,1749740678126220239,16.3263,560.8231,33.8000,-0.0629,0.0160,0.0756,0.2898,3.4812,-9.4192,0.0000,0.0000,0.0000,0.0668,-0.1419,0.0916,-0.0218,-0.0161,0.0192,0.0224,0.0764,-0.1046,0.0005,-0.0005,0.0001,0.0000,4151755533,1749740678125739943,0.0224,0.0764,-0.1046,0.9990,0.0007,-0.0009,0.0458,0.0000,0.0000,0.0000,0.00000000,0.00000000,0.000,0.000,0.000,0.000,0.000,0,0,0.000,0.000,0.000,0.000,0.000,0,0,0,0,0,0,0,0.0000,0.0000,-0.0500,0.0000,0.0000,0.0400,-0.0997,0.1943,0.0000,0.0000,0.0000,0.0000,0.0000,0.0000,0.0000,0.0000,0.0000,0.0000,0.0000,0.0000,0.0000,0.0000,0.0000,0.0000,0.0000,0.0000,0.0000,0.0000,0.0000,0.0000,0.0000,0.0400,0.0000,0.0000,-0.0500,0.2361,0.2361,0.1748,0.1748,1,5,1749740678125660039,1749740678122548717,1749740678125763355,1749740678125747775,1749740678125774812,1749740678125776561,1749740678126175663,1749740678126182995,1749740678126216697,1749740678121742725,0
37,1749740678131514701,1749740678130952127,1749740678130952127,1749740678131519450,16.3316,560.8231,33.8000,0.1641,0.0266,-0.0000,2.2033,-1.8016,-11.7764,0.0000,0.0000,0.0000,0.0672,-0.1416,0.0916,0.0401,-0.0018,0.0128,0.0224,0.0764,-0.1046,0.0005,-0.0005,0.0001,0.0000,4151755533,1749740678125739943,0.0224,0.0764,-0.1046,0.9990,0.0007,-0.0009,0.0458,0.0000,0.0000,0.0000,0.00000000,0.00000000,0.000,0.000,0.000,0.000,0.000,0,0,0.000,0.000,0.000,0.000,0.000,0,0,0,0,0,0,0,0.0000,0.0000,-0.0500,0.0000,0.0000,0.0400,-0.0997,0.1943,0.0000,0.0000,0.0000,0.0000,0.0000,0.0000,0.0000,0.0000,0.0000,0.0000,0.0000,0.0000,0.0000,0.0000,0.0000,0.0000,0.0000,0.0000,0.0000,0.0000,0.0000,0.0000,0.0000,0.0400,0.0000,0.0000,-0.0500,0.2361,0.2361,0.1748,0.1748,1,5,1749740678130956543,1749740678126236736,1749740678131141221,1749740678131128556,1749740678131152719,1749740678131154510,1749740678131475208,1749740678131481165,1749740678131515951,1749740678126234819,0
38,1749740678136711930,1749740678136242840,1749740678136242840,1749740678136716804,16.3360,560.8231,33.8000,0.0618,-0.0682,-0.1150,-1.3268,-2.4668,-9.9394,0.0000,0.0000,0.0000,0.0677,-0.1415,0.0921,0.0474,-0.0239,-0.0298,0.0223,0.0764,-0.1046,0.0003,-0.0004,-0.0002,0.0000,4151764054,1749740678136310746,0.0223,0.0764,-0.1046,0.9989,0.0006,-0.0009,0.0460,0.0000,0.0000,0.0000,0.00000000,0.00000000,0.000,0.000,0.000,0.000,0.000,0,0,0.000,0.000,0.000,0.000,0.000,0,0,0,0,0,0,0,0.0000,0.0000,-0.0500,0.0000,0.0000,0.0400,-0.0997,0.1943,0.0000,0.0000,0.0000,0.0000,0.0000,0.0000,0.0000,0.0000,0.0000,0.0000,0.0000,0.0000,0.0000,0.0000,0.0000,0.0000,0.0000,0.0000,0.0000,0.0000,0.0000,0.0000,0.0000,0.0400,0.0000,0.0000,-0.0500,0.2361,0.2361,0.1748,0.1748,1,5,1749740678136247506,1749740678131535864,1749740678136336491,1749740678136318619,1749740678136348239,1749740678136349947,1749740678136672644,1749740678136679060,1749740678136713138,1749740678131533615,0
39,1749740678140930902,1749740678140255097,1749740678140255097,1749740678140935902,16.3379,560.8231,33.8000,-0.1992,-0.0309,0.0160,-2.8787,3.0482,-8.6176,0.0000,0.0000,0.0000,0.0669,-0.1417,0.0922,-0.0348,-0.0263,-0.0145,0.0224,0.0764,-0.1047,0.0011,0.0002,-0.0010,0.0000,4151772439,1749740678140444524,0.0224,0.0764,-0.1047,0.9989,0.0008,-0.0009,0.0461,0.0000,0.0000,0.0000,0.00000000,0.00000000,0.000,0.000,0.000,0.000,0.000,0,0,0.000,0.000,0.000,0.000,0.000,0,0,0,0,0,0,0,0.0000,0.0000,-0.0500,0.0000,0.0000,0.0400,-0.0997,0.1943,0.0000,0.0000,0.0000,0.0000,0.0000,0.0000,0.0000,0.0000,0.0000,0.0000,0.0000,0.0000,0.0000,0.0000,0.0000,0.0000,0.0000,0.0000,0.0000,0.0000,0.0000,0.0000,0.0000,0.0400,0.0000,0.0000,-0.0500,0.2361,0.2361,0.1748,0.1748,1,5,1749740678140259554,1749740678136731676,1749740678140470145,1749740678140452523,1749740678140481685,1749740678140483434,1749740678140890159,1749740678140896658,1749740678140932069,1749740678136729718,0
40,1749740678146211825,1749740678145505233,1749740678145505233,1749740678146216825,16.3411,560.8231,33.8000,0.0362,0.0756,0.1246,2.3398,0.9881,-7.7778,0.0000,0.0000,0.0000,0.0666,-0.1415,0.0925,-0.0111,0.0077,0.0318,0.0223,0.0764,-0.1047,0.0004,-0.0003,-0.0014,0.0000,4151781285,1749740678145695577,0.0223,0.0764,-0.1047,0.9989,0.0006,-0.0009,0.0463,0.0000,0.0000,0.0000,0.00000000,0.00000000,0.000,0.000,0.000,0.000,0.000,0,0,0.000,0.000,0.000,0.000,0.000,0,0,0,0,0,0,0,0.0000,0.0000,-0.0500,0.0000,0.0000,0.0400,-0.0997,0.1943,0.0000,0.0000,0.0000,0.0000,0.0000,0.0000,0.0000,0.0000,0.0000,0.0000,0.0000,0.0000,0.0000,0.0000,0.0000,0.0000,0.0000,0.0000,0.0000,0.0000,0.0000,0.0000,0.0000,0.0400,0.0000,0.0000,-0.0500,0.2361,0.2361,0.1748,0.1748,1,5,1749740678145510108,1749740678140950816,1749740678145721156,1749740678145703492,1749740678145732821,1749740678145734612,1749740678146053768,1749740678146060184,1749740678146213284,1749740678140948733,0
41,1749740678151375560,1749740678150783657,1749740678150783657,1749740678151380267,16.3432,560.8231,33.8000,0.2194,-0.0533,-0.0916,0.2778,-5.6058,-9.3524,0.0000,0.0000,0.0000,0.0676,-0.1414,0.0922,0.0657,-0.0126,-0.0093,0.0223,0.0764,-0.1048,0.0005,0.0002,-0.0017,0.0000,4151789179,1749740678150974126,0.0223,0.0764,-0.1048,0.9989,0.0007,-0.0008,0.0461,0.0000,0.0000,0.0000,0.00000000,0.00000000,0.000,0.000,0.000,0.000,0.000,0,0,0.000,0.000,0.000,0.000,0.000,0,0,0,0,0,0,0,0.0000,0.0000,-0.0500,0.0000,0.0000,0.0400,-0.0997,0.1943,0.0000,0.0000,0.0000,0.0000,0.0000,0.0000,0.0000,0.0000,0.0000,0.0000,0.0000,0.0000,0.0000,0.0000,0.0000,0.0000,0.0000,0.0000,0.0000,0.0000,0.0000,0.0000,0.0000,0.0400,0.0000,0.0000,-0.0500,0.2361,0.2361,0.1748,0.1748,1,5,1749740678150788073,1749740678146232572,1749740678150999413,1749740678150982083,1749740678151010869,1749740678151012619,1749740678151335649,1749740678151341648,1749740678151376768,1749740678146230697,0
42,1749740678156787961,1749740678155424519,1749740678155424519,1749740678156792377,16.3449,560.8231,33.8000,-0.1119,-0.0575,-0.0937,-4.2294,1.0934,-9.8105,0.0000,0.0000,0.0000,0.0676,-0.1415,0.0920,0.0065,-0.0276,-0.0375,0.0223,0.0764,-0.1047,0.0002,-0.0002,-0.0012,0.0000,4151797171,1749740678156430770,0.0223,0.0764,-0.1047,0.9989,0.0006,-0.0009,0.0460,0.0000,0.0000,0.0000,0.00000000,0.00000000,0.000,0.000,0.000,0.000,0.000,0,0,0.000,0.000,0.000,0.000,0.000,0,0,0,0,0,0,0,0.0000,0.0000,-0.0500,0.0000,0.0000,0.0400,-0.0997,0.1943,0.0000,0.0000,0.0000,0.0000,0.0000,0.0000,0.0000,0.0000,0.0000,0.0000,0.0000,0.0000,0.0000,0.0000,0.0000,0.0000,0.0000,0.0000,0.0000,0.0000,0.0000,0.0000,0.0000,0.0400,0.0000,0.0000,-0.0500,0.2361,0.2361,0.1748,0.1748,1,5,1749740678155428018,1749740678151396639,1749740678156452266,1749740678156438810,1749740678156462181,1749740678156463723,1749740678156754342,1749740678156760299,1749740678156789169,1749740678151394681,0
43,1749740678161304676,1749740678160868915,1749740678160868915,1749740678161309676,16.3471,560.8231,33.8000,-0.1598,-0.0011,0.2173,1.1639,5.0460,-6.7137,0.0000,0.0000,0.0000,0.0665,-0.1418,0.0920,-0.0489,-0.0187,0.0475,0.0223,0.0764,-0.1047,0.0002,-0.0002,-0.0012,0.0000,4151797171,1749740678156430770,0.0223,0.0764,-0.1047,0.9989,0.0006,-0.0009,0.0460,0.0000,0.0000,0.0000,0.00000000,0.00000000,0.000,0.000,0.000,0.000,0.000,0,0,0.000,0.000,0.000,0.000,0.000,0,0,0,0,0,0,0,0.0000,0.0000,-0.0500,0.0000,0.0000,0.0400,-0.0997,0.1943,0.0000,0.0000,0.0000,0.0000,0.0000,0.0000,0.0000,0.0000,0.0000,0.0000,0.0000,0.0000,0.0000,0.0000,0.0000,0.0000,0.0000,0.0000,0.0000,0.0000,0.0000,0.0000,0.0000,0.0400,0.0000,0.0000,-0.0500,0.2361,0.2361,0.1748,0.1748,1,5,1749740678160873789,1749740678156805666,1749740678160926197,1749740678160913324,1749740678160937362,1749740678160939112,1749740678161264808,1749740678161271140,1749740678161305926,1749740678156803917,0
44,1749740678166430500,1749740678165793355,1749740678165793355,1749740678166435499,16.3471,560.8231,33.8000,0.2173,-0.0149,0.0149,3.1397,-1.4523,-7.2076,0.0000,0.0000,0.0000,0.0671,-0.1417,0.0918,0.0398,-0.0175,0.0366,0.0223,0.0764,-0.1047,0.0004,-0.0002,-0.0012,0.0000,4151805730,1749740678165982949,0.0223,0.0764,-0.1047,0.9989,0.0005,-0.0009,0.0459,0.0000,0.0000,0.0000,0.00000000,0.00000000,0.000,0.000,0.000,0.000,0.000,0,0,0.000,0.000,0.000,0.000,0.000,0,0,0,0,0,0,0,0.0000,0.0000,-0.0500,0.0000,0.0000,0.0400,-0.0997,0.1943,0.0000,0.0000,0.0000,0.0000,0.0000,0.0000,0.0000,0.0000,0.0000,0.0000,0.0000,0.0000,0.0000,0.0000,0.0000,0.0000,0.0000,0.0000,0.0000,0.0000,0.0000,0.0000,0.0000,0.0400,0.0000,0.0000,-0.0500,0.2361,0.2361,0.1748,0.1748,1,5,1749740678165797937,1749740678161324340,1749740678166008111,1749740678165990864,1749740678166019609,1749740678166021734,1749740678166390465,1749740678166397214,1749740678166431708,1749740678161322549,0
45,1749740678171368480,1749740678170933426,1749740678170933426,1749740678171373479,16.3498,560.8231,33.8000,0.0863,-0.0266,-0.2045,-4.0354,-2.5457,-10.4571,0.0000,0.0000,0.0000,0.0678,-0.1414,0.0918,0.0553,-0.0205,-0.0438,0.0223,0.0764,-0.1047,0.0004,-0.0002,-0.0012,0.0000,4151805730,1749740678165982949,0.0223,0.0764,-0.1047,0.9989,0.0005,-0.0009,0.0459,0.0000,0.0000,0.0000,0.00000000,0.00000000,0.000,0.000,0.000,0.000,0.000,0,0,0.000,0.000,0.000,0.000,0.000,0,0,0,0,0,0,0,0.0000,0.0000,-0.0500,0.0000,0.0000,0.0400,-0.0997,0.1943,0.0000,0.0000,0.0000,0.0000,0.0000,0.0000,0.0000,0.0000,0.0000,0.0000,0.0000,0.0000,0.0000,0.0000,0.0000,0.0000,0.0000,0.0000,0.0000,0.0000,0.0000,0.0000,0.0000,0.0400,0.0000,0.0000,-0.0500,0.2361,0.2361,0.1748,0.1748,1,5,1749740678170938134,1749740678166450413,1749740678170988292,1749740678170975711,1749740678171000040,1749740678171001832,1749740678171328195,1749740678171334568,1749740678171369646,1749740678166448539,0
46,1749740678176805210,1749740678176217390,1749740678176217390,1749740678176809918,16.3510,560.8231,33.8000,-0.2269,-0.0107,0.1555,-1.1998,5.0986,-9.4407,0.0000,0.0000,0.0000,0.0667,-0.1417,0.0918,-0.0388,-0.0172,0.0227,0.0223,0.0763,-0.1047,0.0003,-0.0004,-0.0008,0.0000,4151814763,1749740678176408151,0.0223,0.0763,-0.1047,0.9989,0.0006,-0.0010,0.0459,0.0000,0.0000,0.0000,0.00000000,0.00000000,0.000,0.000,0.000,0.000,0.000,0,0,0.000,0.000,0.000,0.000,0.000,0,0,0,0,0,0,0,0.0000,0.0000,-0.0500,0.0000,0.0000,0.0400,-0.0997,0.1943,0.0000,0.0000,0.0000,0.0000,0.0000,0.0000,0.0000,0.0000,0.0000,0.0000,0.0000,0.0000,0.0000,0.0000,0.0000,0.0000,0.0000,0.0000,0.0000,0.0000,0.0000,0.0000,0.0000,0.0400,0.0000,0.0000,-0.0500,0.2361,0.2361,0.1748,0.1748,1,5,1749740678176221890,1749740678172179763,1749740678176433605,1749740678176415983,1749740678176444895,1749740678176446686,1749740678176766050,1749740678176772008,1749740678176806419,1749740678171387060,0
47,1749740678181205778,1749740678180570091,1749740678180570091,1749740678181210444,16.3548,560.8231,33.8000,0.0937,-0.0650,0.1672,4.9598,1.2848,-6.4537,0.0000,0.0000,0.0000,0.0665,-0.1421,0.0919,0.0054,-0.0331,0.0709,0.0223,0.0764,-0.1047,0.0005,0.0002,-0.0014,0.0000,4151822721,1749740678180805594,0.0223,0.0764,-0.1047,0.9989,0.0005,-0.0010,0.0459,0.0000,0.0000,0.0000,0.00000000,0.00000000,0.000,0.000,0.000,0.000,0.000,0,0,0.000,0.000,0.000,0.000,0.000,0,0,0,0,0,0,0,0.0000,0.0000,-0.0500,0.0000,0.0000,0.0400,-0.0997,0.1943,0.0000,0.0000,0.0000,0.0000,0.0000,0.0000,0.0000,0.0000,0.0000,0.0000,0.0000,0.0000,0.0000,0.0000,0.0000,0.0000,0.0000,0.0000,0.0000,0.0000,0.0000,0.0000,0.0000,0.0400,0.0000,0.0000,-0.0500,0.2361,0.2361,0.1748,0.1748,1,5,1749740678180573882,1749740678176824541,1749740678180828840,1749740678180814009,1749740678180840630,1749740678180842463,1749740678181165910,1749740678181171951,1749740678181206945,1749740678176822583,0
48,1749740678186709998,1749740678186275861,1749740678186275861,1749740678186714706,16.3565,560.8231,33.8000,0.1981,-0.0234,-0.2621,-2.5530,-4.4765,-12.3490,0.0000,0.0000,0.0000,0.0675,-0.1416,0.0919,0.0697,-0.0299,-0.0401,0.0223,0.0764,-0.1047,0.0005,0.0002,-0.0014,0.0000,4151822721,1749740678180805594,0.0223,0.0764,-0.1047,0.9989,0.0005,-0.0010,0.0459,0.0000,0.0000,0.0000,0.00000000,0.00000000,0.000,0.000,0.000,0.000,0.000,0,0,0.000,0.000,0.000,0.000,0.000,0,0,0,0,0,0,0,0.0000,0.0000,-0.0500,0.0000,0.0000,0.0400,-0.0997,0.1943,0.0000,0.0000,0.0000,0.0000,0.0000,0.0000,0.0000,0.0000,0.0000,0.0000,0.0000,0.0000,0.0000,0.0000,0.0000,0.0000,0.0000,0.0000,0.0000,0.0000,0.0000,0.0000,0.0000,0.0400,0.0000,0.0000,-0.0500,0.2361,0.2361,0.1748,0.1748,1,5,1749740678186280360,1749740678181225567,1749740678186334768,1749740678186322145,1749740678186346266,1749740678186348016,1749740678186670463,1749740678186676504,1749740678186711164,1749740678181223609,0
49,1749740678190887436,1749740678190453299,1749740678190453299,1749740678190892143,16.3587,560.8231,33.8000,-0.1843,0.0064,-0.0085,-4.0546,2.9261,-13.1960,0.0000,0.0000,0.0000,0.0670,-0.1416,0.0919,-0.0150,-0.0178,-0.0296,0.0223,0.0764,-0.1047,0.0005,0.0002,-0.0014,0.0000,4151822721,1749740678180805594,0.0223,0.0764,-0.1047,0.9989,0.0005,-0.0010,0.0459,0.0000,0.0000,0.0000,0.00000000,0.00000000,0.000,0.000,0.000,0.000,0.000,0,0,0.000,0.000,0.000,0.000,0.000,0,0,0,0,0,0,0,0.0000,0.0000,-0.0500,0.0000,0.0000,0.0400,-0.0997,0.1943,0.0000,0.0000,0.0000,0.0000,0.0000,0.0000,0.0000,0.0000,0.0000,0.0000,0.0000,0.0000,0.0000,0.0000,0.0000,0.0000,0.0000,0.0000,0.0000,0.0000,0.0000,0.0000,0.0000,0.0400,0.0000,0.0000,-0.0500,0.2361,0.2361,0.1748,0.1748,1,5,1749740678190457798,1749740678186729870,1749740678190512623,1749740678190499666,1749740678190523746,1749740678190525495,1749740678190847942,1749740678190854025,1749740678190888644,1749740678186727912,0
50,1749740678195965892,1749740678195529797,1749740678195529797,1749740678195970558,16.3611,560.8231,33.8000,0.0053,-0.0330,0.2716,4.8185,2.7204,-9.4884,0.0000,0.0000,0.0000,0.0665,-0.1421,0.0919,-0.0082,-0.0229,0.0708,0.0223,0.0764,-0.1047,0.0005,0.0002,-0.0014,0.0000,4151822721,1749740678180805594,0.0223,0.0764,-0.1047,0.9989,0.0005,-0.0010,0.0459,0.0000,0.0000,0.0000,0.00000000,0.00000000,0.000,0.000,0.000,0.000,0.000,0,0,0.000,0.000,0.000,0.000,0.000,0,0,0,0,0,0,0,0.0000,0.0000,-0.0500,0.0000,0.0000,0.0400,-0.0997,0.1943,0.0000,0.0000,0.0000,0.0000,0.0000,0.0000,0.0000,0.0000,0.0000,0.0000,0.0000,0.0000,0.0000,0.0000,0.0000,0.0000,0.0000,0.0000,0.0000,0.0000,0.0000,0.0000,0.0000,0.0400,0.0000,0.0000,-0.0500,0.2361,0.2361,0.1748,0.1748,1,5,1749740678195534672,1749740678190906933,1749740678195588996,1749740678195575956,1749740678195600744,1749740678195602535,1749740678195925274,1749740678195931815,1749740678195967100,1749740678190905016,0
51,1749740678201032101,1749740678200452988,1749740678200452988,1749740678201036642,16.3628,560.8231,33.8000,0.2429,-0.0586,-0.1736,0.0599,-7.0868,-11.4233,0.0000,0.0000,0.0000,0.0675,-0.1417,0.0919,0.0755,-0.0348,-0.0107,0.0224,0.0763,-0.1047,0.0005,0.0001,-0.0012,0.0000,4151831489,1749740678200635208,0.0224,0.0763,-0.1047,0.9989,0.0006,-0.0010,0.0459,0.0000,0.0000,0.0000,0.00000000,0.00000000,0.000,0.000,0.000,0.000,0.000,0,0,0.000,0.000,0.000,0.000,0.000,0,0,0,0,0,0,0,0.0000,0.0000,-0.0500,0.0000,0.0000,0.0400,-0.0997,0.1943,0.0000,0.0000,0.0000,0.0000,0.0000,0.0000,0.0000,0.0000,0.0000,0.0000,0.0000,0.0000,0.0000,0.0000,0.0000,0.0000,0.0000,0.0000,0.0000,0.0000,0.0000,0.0000,0.0000,0.0400,0.0000,0.0000,-0.0500,0.2361,0.2361,0.1748,0.1748,1,5,1749740678200457445,1749740678195986056,1749740678200661245,1749740678200643790,1749740678200672868,1749740678200674618,1749740678200992649,1749740678200998606,1749740678201033351,1749740678195984098,0
52,1749740678205961165,1749740678205490576,1749740678205490576,1749740678205966414,16.3643,560.8231,33.8000,-0.1225,0.0501,-0.1619,-5.9872,1.8901,-14.0048,0.0000,0.0000,0.0000,0.0676,-0.1412,0.0919,0.0095,-0.0065,-0.0611,0.0224,0.0763,-0.1047,0.0005,0.0001,-0.0012,0.0000,4151831489,1749740678200635208,0.0224,0.0763,-0.1047,0.9989,0.0006,-0.0010,0.0459,0.0000,0.0000,0.0000,0.00000000,0.00000000,0.000,0.000,0.000,0.000,0.000,0,0,0.000,0.000,0.000,0.000,0.000,0,0,0,0,0,0,0,0.0000,0.0000,-0.0500,0.0000,0.0000,0.0400,-0.0997,0.1943,0.0000,0.0000,0.0000,0.0000,0.0000,0.0000,0.0000,0.0000,0.0000,0.0000,0.0000,0.0000,0.0000,0.0000,0.0000,0.0000,0.0000,0.0000,0.0000,0.0000,0.0000,0.0000,0.0000,0.0400,0.0000,0.0000,-0.0500,0.2361,0.2361,0.1748,0.1748,1,5,1749740678205495283,1749740678201051306,1749740678205587560,1749740678205574854,1749740678205598725,1749740678205600558,1749740678205921922,1749740678205927837,1749740678205962373,1749740678201049348,0
53,1749740678211338072,1749740678210780247,1749740678210780247,1749740678211342780,16.3655,560.8231,33.8000,-0.0511,-0.0128,0.2653,2.8739,3.3329,-9.5433,0.0000,0.0000,0.0000,0.0669,-0.1418,0.0920,-0.0107,-0.0086,0.0477,0.0223,0.0764,-0.1048,0.0004,0.0004,-0.0018,0.0000,4151838449,1749740678210939763,0.0223,0.0764,-0.1048,0.9989,0.0006,-0.0009,0.0460,0.0000,0.0000,0.0000,0.00000000,0.00000000,0.000,0.000,0.000,0.000,0.000,0,0,0.000,0.000,0.000,0.000,0.000,0,0,0,0,0,0,0,0.0000,0.0000,-0.0500,0.0000,0.0000,0.0400,-0.0997,0.1943,0.0000,0.0000,0.0000,0.0000,0.0000,0.0000,0.0000,0.0000,0.0000,0.0000,0.0000,0.0000,0.0000,0.0000,0.0000,0.0000,0.0000,0.0000,0.0000,0.0000,0.0000,0.0000,0.0000,0.0400,0.0000,0.0000,-0.0500,0.2361,0.2361,0.1748,0.1748,1,5,1749740678210784663,1749740678205982412,1749740678210965175,1749740678210947637,1749740678210977048,1749740678210978756,1749740678211298746,1749740678211304870,1749740678211339239,1749740678205980162,0
54,1749740678216928153,1749740678216340875,1749740678216340875,1749740678216932861,16.3657,560.8231,33.8000,0.2035,-0.1012,-0.0437,1.4777,-4.0913,-8.9469,0.0000,0.0000,0.0000,0.0676,-0.1418,0.0919,0.0607,-0.0395,0.0172,0.0224,0.0764,-0.1048,0.0007,-0.0002,-0.0011,0.0000,4151847136,1749740678216530093,0.0224,0.0764,-0.1048,0.9989,0.0007,-0.0010,0.0459,0.0000,0.0000,0.0000,0.00000000,0.00000000,0.000,0.000,0.000,0.000,0.000,0,0,0.000,0.000,0.000,0.000,0.000,0,0,0,0,0,0,0,0.0000,0.0000,-0.0500,0.0000,0.0000,0.0400,-0.0997,0.1943,0.0000,0.0000,0.0000,0.0000,0.0000,0.0000,0.0000,0.0000,0.0000,0.0000,0.0000,0.0000,0.0000,0.0000,0.0000,0.0000,0.0000,0.0000,0.0000,0.0000,0.0000,0.0000,0.0000,0.0400,0.0000,0.0000,-0.0500,0.2361,0.2361,0.1748,0.1748,1,5,1749740678216345290,1749740678211358652,1749740678216555548,1749740678216538009,1749740678216567004,1749740678216568712,1749740678216888618,1749740678216894658,1749740678216929361,1749740678211356736,0
55,1749740678221441744,1749740678220910915,1749740678220910915,1749740678221446493,16.3664,560.8231,33.8000,-0.0767,0.0234,-0.2248,-6.0423,1.1628,-14.0215,0.0000,0.0000,0.0000,0.0677,-0.1414,0.0919,0.0149,-0.0185,-0.0634,0.0224,0.0764,-0.1048,0.0007,-0.0002,-0.0011,0.0000,4151847136,1749740678216530093,0.0224,0.0764,-0.1048,0.9989,0.0007,-0.0010,0.0459,0.0000,0.0000,0.0000,0.00000000,0.00000000,0.000,0.000,0.000,0.000,0.000,0,0,0.000,0.000,0.000,0.000,0.000,0,0,0,0,0,0,0,0.0000,0.0000,-0.0500,0.0000,0.0000,0.0400,-0.0997,0.1943,0.0000,0.0000,0.0000,0.0000,0.0000,0.0000,0.0000,0.0000,0.0000,0.0000,0.0000,0.0000,0.0000,0.0000,0.0000,0.0000,0.0000,0.0000,0.0000,0.0000,0.0000,0.0000,0.0000,0.0400,0.0000,0.0000,-0.0500,0.2361,0.2361,0.1748,0.1748,1,5,1749740678220915414,1749740678216947983,1749740678221066889,1749740678221053599,1749740678221078095,1749740678221079845,1749740678221402209,1749740678221408208,1749740678221442952,1749740678216946025,0
56,1749740678226362060,1749740678225786863,1749740678225786863,1749740678226367226,16.3674,560.8522,33.8000,-0.0735,0.0426,0.2056,1.9614,4.2899,-10.0992,0.0000,0.0000,0.0000,0.0670,-0.1416,0.0920,-0.0146,0.0019,0.0262,0.0223,0.0764,-0.1048,0.0003,0.0002,-0.0015,0.0000,4151855054,1749740678225887596,0.0223,0.0764,-0.1048,0.9989,0.0006,-0.0009,0.0460,0.0000,0.0000,0.0000,0.00000000,0.00000000,0.000,0.000,0.000,0.000,0.000,0,0,0.000,0.000,0.000,0.000,0.000,0,0,0,0,0,0,0,0.0000,0.0000,-0.0500,0.0000,0.0000,0.0400,-0.0997,0.1943,0.0000,0.0000,0.0000,0.0000,0.0000,0.0000,0.0000,0.0000,0.0000,0.0000,0.0000,0.0000,0.0000,0.0000,0.0000,0.0000,0.0000,0.0000,0.0000,0.0000,0.0000,0.0000,0.0000,0.0400,0.0000,0.0000,-0.0500,0.2361,0.2361,0.1748,0.1748,1,5,1749740678225791654,1749740678222228573,1749740678225912967,1749740678225895553,1749740678225924298,1749740678225926006,1749740678226322483,1749740678226328940,1749740678226363226,1749740678221459324,0
57,1749740678231047664,1749740678230485506,1749740678230485506,1749740678231052372,16.3693,560.8522,33.8000,0.1566,-0.1001,0.0629,2.0740,-5.0723,-8.6701,0.0000,0.0000,0.0000,0.0672,-0.1418,0.0920,0.0425,-0.0321,0.0384,0.0223,0.0764,-0.1048,0.0003,0.0002,-0.0015,0.0000,4151855054,1749740678225887596,0.0223,0.0764,-0.1048,0.9989,0.0006,-0.0009,0.0460,0.0000,0.0000,0.0000,0.00000000,0.00000000,0.000,0.000,0.000,0.000,0.000,0,0,0.000,0.000,0.000,0.000,0.000,0,0,0,0,0,0,0,0.0000,0.0000,-0.0500,0.0000,0.0000,0.0400,-0.0997,0.1943,0.0000,0.0000,0.0000,0.0000,0.0000,0.0000,0.0000,0.0000,0.0000,0.0000,0.0000,0.0000,0.0000,0.0000,0.0000,0.0000,0.0000,0.0000,0.0000,0.0000,0.0000,0.0000,0.0000,0.0400,0.0000,0.0000,-0.0500,0.2361,0.2361,0.1748,0.1748,1,5,1749740678230490006,1749740678226383348,1749740678230670893,1749740678230658395,1749740678230682641,1749740678230684474,1749740678231007712,1749740678231013961,1749740678231048872,1749740678226381098,0
58,1749740678236629329,1749740678236160406,1749740678236160406,1749740678236633995,16.3696,560.8522,33.8000,-0.0490,-0.0149,-0.2109,-5.3454,-0.1699,-10.3617,0.0000,0.0000,0.0000,0.0676,-0.1415,0.0918,0.0120,-0.0264,-0.0447,0.0223,0.0764,-0.1048,0.0000,0.0001,-0.0010,0.0000,4151863744,1749740678236232228,0.0223,0.0764,-0.1048,0.9989,0.0007,-0.0009,0.0459,0.0000,0.0000,0.0000,0.00000000,0.00000000,0.000,0.000,0.000,0.000,0.000,0,0,0.000,0.000,0.000,0.000,0.000,0,0,0,0,0,0,0,0.0000,0.0000,-0.0500,0.0000,0.0000,0.0400,-0.0997,0.1943,0.0000,0.0000,0.0000,0.0000,0.0000,0.0000,0.0000,0.0000,0.0000,0.0000,0.0000,0.0000,0.0000,0.0000,0.0000,0.0000,0.0000,0.0000,0.0000,0.0000,0.0000,0.0000,0.0000,0.0400,0.0000,0.0000,-0.0500,0.2361,0.2361,0.1748,0.1748,1,5,1749740678236164822,1749740678231068827,1749740678236257932,1749740678236240060,1749740678236269264,1749740678236271013,1749740678236589878,1749740678236596293,1749740678236630537,1749740678231066869,0
59,1749740678241053602,1749740678240386336,1749740678240386336,1749740678241058268,16.3718,560.8522,33.8000,-0.0607,0.0767,0.1545,0.0934,5.7087,-9.1687,0.0000,0.0000,0.0000,0.0671,-0.1415,0.0918,-0.0122,0.0080,0.0217,0.0223,0.0764,-0.1048,0.0006,0.0001,-0.0010,0.0000,4151872426,1749740678240655542,0.0223,0.0764,-0.1048,0.9989,0.0007,-0.0008,0.0459,0.0000,0.0000,0.0000,0.00000000,0.00000000,0.000,0.000,0.000,0.000,0.000,0,0,0.000,0.000,0.000,0.000,0.000,0,0,0,0,0,0,0,0.0000,0.0000,-0.0500,0.0000,0.0000,0.0400,-0.0997,0.1943,0.0000,0.0000,0.0000,0.0000,0.0000,0.0000,0.0000,0.0000,0.0000,0.0000,0.0000,0.0000,0.0000,0.0000,0.0000,0.0000,0.0000,0.0000,0.0000,0.0000,0.0000,0.0000,0.0000,0.0400,0.0000,0.0000,-0.0500,0.2361,0.2361,0.1748,0.1748,1,5,1749740678240390877,1749740678236649159,1749740678240681246,1749740678240663707,1749740678240692453,1749740678240694244,1749740678241014566,1749740678241020857,1749740678241054768,1749740678236647160,0
60,1749740678246317528,1749740678245571150,1749740678245571150,1749740678246322318,16.3744,560.8522,33.8000,0.1278,-0.0905,0.0852,2.5290,-3.5291,-6.7996,0.0000,0.0000,0.0000,0.0671,-0.1419,0.0916,0.0344,-0.0249,0.0429,0.0223,0.0764,-0.1047,-0.0002,0.0002,-0.0007,0.0000,4151881180,1749740678245797488,0.0223,0.0764,-0.1047,0.9990,0.0008,-0.0008,0.0458,0.0000,0.0000,0.0000,0.00000000,0.00000000,0.000,0.000,0.000,0.000,0.000,0,0,0.000,0.000,0.000,0.000,0.000,0,0,0,0,0,0,0,0.0000,0.0000,-0.0500,0.0000,0.0000,0.0400,-0.0997,0.1943,0.0000,0.0000,0.0000,0.0000,0.0000,0.0000,0.0000,0.0000,0.0000,0.0000,0.0000,0.0000,0.0000,0.0000,0.0000,0.0000,0.0000,0.0000,0.0000,0.0000,0.0000,0.0000,0.0000,0.0400,0.0000,0.0000,-0.0500,0.2361,0.2361,0.1748,0.1748,1,5,1749740678245575650,1749740678241073640,1749740678245823109,1749740678245805487,1749740678245834732,1749740678245836523,1749740678246277701,1749740678246284075,1749740678246318777,1749740678241071682,0
61,1749740678251120196,1749740678250530835,1749740678250530835,1749740678251124904,16.3754,560.8522,33.8000,-0.0820,-0.0256,-0.1896,-4.0210,-0.8015,-10.1231,0.0000,0.0000,0.0000,0.0671,-0.1416,0.0916,-0.0044,-0.0251,-0.0346,0.0223,0.0764,-0.1047,0.0005,0.0001,-0.0006,0.0000,4151889073,1749740678250721178,0.0223,0.0764,-0.1047,0.9990,0.0009,-0.0008,0.0458,0.0000,0.0000,0.0000,0.00000000,0.00000000,0.000,0.000,0.000,0.000,0.000,0,0,0.000,0.000,0.000,0.000,0.000,0,0,0,0,0,0,0,0.0000,0.0000,-0.0500,0.0000,0.0000,0.0400,-0.0997,0.1943,0.0000,0.0000,0.0000,0.0000,0.0000,0.0000,0.0000,0.0000,0.0000,0.0000,0.0000,0.0000,0.0000,0.0000,0.0000,0.0000,0.0000,0.0000,0.0000,0.0000,0.0000,0.0000,0.0000,0.0400,0.0000,0.0000,-0.0500,0.2361,0.2361,0.1748,0.1748,1,5,1749740678250535334,1749740678246338191,1749740678250746591,1749740678250729052,1749740678250758131,1749740678250759922,1749740678251080286,1749740678251086202,1749740678251121404,1749740678246336316,0
