loop_index,last_step_ns,imu_time_ns,bmp_time_ns,epoch_time_ns,v_batt,alt_bmp_raw,bmp_temp,gyro_roll,gyro_pitch,gyro_yaw,accel_X,accel_Y,accel_Z,mag_X, mag_Y, mag_Z,roll,pitch,yaw,rollDot,pitchDot,yawDot,X,Y,Z,Xdot,Ydot,Zdot,Zddot,xbee_time,xbee_time_received_ns,xbee_x,xbee_y,xbee_z,xbee_qw,xbee_qx,xbee_qy,xbee_qz,xbee_roll,xbee_pitch,xbee_yaw,gps_lat,gps_lon,gps_gpsAlt,gps_ned_x,gps_ned_y,gps_ned_z,gps_spd,gps_fix,gps_sat,gps_headingNc,gps_cog,gps_gpsVsi,gps_hdop,gps_vdop,gps_year,gps_month,gps_day,gps_hour,gps_minute,gps_second,gps_time_received_ns,X_thrt,Y_thrt,Z_thrt,roll_thrt,pitch_thrt,yaw_thrt,sp_roll_dot,sp_pitch_dot,sp_yaw_dot,sp_roll_dot_ff,sp_pitch_dot_ff,sp_yaw_dot_ff,sp_roll,sp_pitch,sp_yaw,sp_roll_ff,sp_pitch_ff,sp_X,sp_Y,sp_Z,sp_Xdot,sp_Ydot,sp_Zdot,sp_Xdot_ff,sp_Ydot_ff,sp_Zdot_ff,sp_Xddot,sp_Yddot,sp_Zddot,u_roll,u_pitch,u_yaw,u_X,u_Y,u_Z,mot_1,mot_2,mot_3,mot_4,dsm_con,flight_mode,tIMU,tIMU_END,tSM,tXBEE,tGPS,tPNI,tNAV,tGUI,tCTR,tLOG,tNTP
1,1749741145548952846,1749741145547200973,1749741145547200973,1749741145548957429,16.3420,561.6354,33.9200,0.0128,-0.0149,0.0075,-0.4981,0.0837,-9.4980,0.0000,0.0000,0.0000,0.0601,-0.1288,0.0186,0.0124,-0.0148,0.0071,-0.0591,-1.7883,-0.1011,0.0001,-0.0001,0.0001,0.0000,324234494,1749741145547477001,-0.0591,-1.7883,-0.1011,0.9999,0.0057,-0.0019,0.0093,0.0000,0.0000,0.0000,0.00000000,0.00000000,0.000,0.000,0.000,0.000,0.000,0,0,0.000,0.000,0.000,0.000,0.000,0,0,0,0,0,0,0,0.0000,0.0000,-0.0500,0.0000,0.0000,0.0000,0.0000,0.0000,0.0000,0.0000,0.0000,0.0000,0.0000,0.0000,0.0000,0.0000,0.0000,0.0000,0.0000,0.0000,0.0000,0.0000,0.0000,0.0000,0.0000,0.0000,0.0000,0.0000,0.0000,0.0000,0.0000,0.0000,0.0000,0.0000,-0.0500,0.2072,0.2072,0.2072,0.2072,1,5,1749741145547205848,1749741145542787023,1749741145547502167,1749741145547485126,1749741145547513000,1749741145547514958,1749741145547826068,1749741145548920180,1749741145548954012,1749741145542785190,0
2,1749741145552962690,1749741145552526712,1749741145552526712,1749741145552967773,16.3418,561.6354,33.9200,0.0107,-0.0128,0.0043,-0.4862,0.0598,-9.5409,0.0000,0.0000,0.0000,0.0601,-0.1287,0.0186,0.0118,-0.0141,0.0062,-0.0591,-1.7883,-0.1011,0.0001,-0.0001,0.0001,0.0000,324234494,1749741145547477001,-0.0591,-1.7883,-0.1011,0.9999,0.0057,-0.0019,0.0093,0.0000,0.0000,0.0000,0.00000000,0.00000000,0.000,0.000,0.000,0.000,0.000,0,0,0.000,0.000,0.000,0.000,0.000,0,0,0,0,0,0,0,0.0000,0.0000,-0.0500,0.0000,0.0000,0.0000,0.0000,0.0000,0.0000,0.0000,0.0000,0.0000,0.0000,0.0000,0.0000,0.0000,0.0000,0.0000,0.0000,0.0000,0.0000,0.0000,0.0000,0.0000,0.0000,0.0000,0.0000,0.0000,0.0000,0.0000,0.0000,0.0000,0.0000,0.0000,-0.0500,0.2072,0.2072,0.2072,0.2072,1,5,1749741145552531545,1749741145548971970,1749741145552586334,1749741145552572959,1749741145552596958,1749741145552598583,1749741145552923234,1749741145552928858,1749741145552963898,1749741145548970220,0
3,1749741145558302636,1749741145557641210,1749741145557641210,1749741145558307719,16.3415,561.6354,33.9200,0.0128,-0.0138,0.0043,-0.4622,0.0933,-9.5004,0.0000,0.0000,0.0000,0.0601,-0.1287,0.0186,0.0122,-0.0140,0.0055,-0.0591,-1.7882,-0.1011,0.0001,0.0000,0.0000,0.0000,324242842,1749741145557831701,-0.0591,-1.7882,-0.1011,0.9999,0.0057,-0.0019,0.0093,0.0000,0.0000,0.0000,0.00000000,0.00000000,0.000,0.000,0.000,0.000,0.000,0,0,0.000,0.000,0.000,0.000,0.000,0,0,0,0,0,0,0,0.0000,0.0000,-0.0500,0.0000,0.0000,0.0000,0.0000,0.0000,0.0000,0.0000,0.0000,0.0000,0.0000,0.0000,0.0000,0.0000,0.0000,0.0000,0.0000,0.0000,0.0000,0.0000,0.0000,0.0000,0.0000,0.0000,0.0000,0.0000,0.0000,0.0000,0.0000,0.0000,0.0000,0.0000,-0.0500,0.2072,0.2072,0.2072,0.2072,1,5,1749741145557645668,1749741145552982023,1749741145557857533,1749741145557839909,1749741145557869366,1749741145557871157,1749741145558263346,1749741145558269138,1749741145558303844,1749741145552979939,0
4,1749741145563189813,1749741145562522095,1749741145562522095,1749741145563194479,16.3418,561.6354,33.9200,0.0117,-0.0138,0.0064,-0.4550,0.1220,-9.4407,0.0000,0.0000,0.0000,0.0601,-0.1287,0.0186,0.0120,-0.0140,0.0058,-0.0591,-1.7883,-0.1011,0.0000,-0.0001,0.0002,0.0000,324251397,1749741145562794082,-0.0591,-1.7883,-0.1011,0.9999,0.0057,-0.0019,0.0093,0.0000,0.0000,0.0000,0.00000000,0.00000000,0.000,0.000,0.000,0.000,0.000,0,0,0.000,0.000,0.000,0.000,0.000,0,0,0,0,0,0,0,0.0000,0.0000,-0.0500,0.0000,0.0000,0.0000,0.0000,0.0000,0.0000,0.0000,0.0000,0.0000,0.0000,0.0000,0.0000,0.0000,0.0000,0.0000,0.0000,0.0000,0.0000,0.0000,0.0000,0.0000,0.0000,0.0000,0.0000,0.0000,0.0000,0.0000,0.0000,0.0000,0.0000,0.0000,-0.0500,0.2072,0.2072,0.2072,0.2072,1,5,1749741145562526512,1749741145558322385,1749741145562817706,1749741145562802207,1749741145562828414,1749741145562830164,1749741145563150731,1749741145563156398,1749741145563190979,1749741145558320510,0
5,1749741145567717424,1749741145567266946,1749741145567266946,1749741145567722132,16.3415,561.6354,33.9200,0.0107,-0.0170,0.0075,-0.5149,0.0574,-9.4694,0.0000,0.0000,0.0000,0.0601,-0.1288,0.0186,0.0116,-0.0150,0.0064,-0.0591,-1.7883,-0.1011,0.0000,-0.0001,0.0002,0.0000,324251397,1749741145562794082,-0.0591,-1.7883,-0.1011,0.9999,0.0057,-0.0019,0.0093,0.0000,0.0000,0.0000,0.00000000,0.00000000,0.000,0.000,0.000,0.000,0.000,0,0,0.000,0.000,0.000,0.000,0.000,0,0,0,0,0,0,0,0.0000,0.0000,-0.0500,0.0000,0.0000,0.0000,0.0000,0.0000,0.0000,0.0000,0.0000,0.0000,0.0000,0.0000,0.0000,0.0000,0.0000,0.0000,0.0000,0.0000,0.0000,0.0000,0.0000,0.0000,0.0000,0.0000,0.0000,0.0000,0.0000,0.0000,0.0000,0.0000,0.0000,0.0000,-0.0500,0.2072,0.2072,0.2072,0.2072,1,5,1749741145567271904,1749741145563208603,1749741145567322860,1749741145567309777,1749741145567333526,1749741145567335151,1749741145567678175,1749741145567684175,1749741145567718590,1749741145563206562,0
6,1749741145572851380,1749741145572260367,1749741145572260367,1749741145572856129,16.3360,561.6354,33.9200,0.0117,-0.0160,0.0075,-0.4862,0.0646,-9.4598,0.0000,0.0000,0.0000,0.0601,-0.1288,0.0188,0.0116,-0.0153,0.0067,-0.0590,-1.7882,-0.1011,0.0004,0.0000,0.0001,0.0000,324259441,1749741145572452066,-0.0590,-1.7882,-0.1011,0.9999,0.0058,-0.0019,0.0094,0.0000,0.0000,0.0000,0.00000000,0.00000000,0.000,0.000,0.000,0.000,0.000,0,0,0.000,0.000,0.000,0.000,0.000,0,0,0,0,0,0,0,0.0000,0.0000,-0.0500,0.0000,0.0000,0.0000,0.0000,0.0000,0.0000,0.0000,0.0000,0.0000,0.0000,0.0000,0.0000,0.0000,0.0000,0.0000,0.0000,0.0000,0.0000,0.0000,0.0000,0.0000,0.0000,0.0000,0.0000,0.0000,0.0000,0.0000,0.0000,0.0000,0.0000,0.0000,-0.0500,0.2072,0.2072,0.2072,0.2072,1,5,1749741145572264825,1749741145567737131,1749741145572477731,1749741145572460149,1749741145572489606,1749741145572491356,1749741145572812048,1749741145572817715,1749741145572852588,1749741145567735214,0
7,1749741145577355242,1749741145576945928,1749741145576945928,1749741145577359908,16.3282,561.6354,33.9200,0.0085,-0.0128,0.0032,-0.0599,0.4331,-9.2379,0.0000,0.0000,0.0000,0.0601,-0.1288,0.0188,0.0106,-0.0145,0.0056,-0.0590,-1.7882,-0.1011,0.0004,0.0000,0.0001,0.0000,324259441,1749741145572452066,-0.0590,-1.7882,-0.1011,0.9999,0.0058,-0.0019,0.0094,0.0000,0.0000,0.0000,0.00000000,0.00000000,0.000,0.000,0.000,0.000,0.000,0,0,0.000,0.000,0.000,0.000,0.000,0,0,0,0,0,0,0,0.0000,0.0000,-0.0500,0.0000,0.0000,0.0000,0.0000,0.0000,0.0000,0.0000,0.0000,0.0000,0.0000,0.0000,0.0000,0.0000,0.0000,0.0000,0.0000,0.0000,0.0000,0.0000,0.0000,0.0000,0.0000,0.0000,0.0000,0.0000,0.0000,0.0000,0.0000,0.0000,0.0000,0.0000,-0.0500,0.2072,0.2072,0.2072,0.2072,1,5,1749741145576948928,1749741145572870462,1749741145576985468,1749741145576972219,1749741145576996259,1749741145576998009,1749741145577317410,1749741145577323118,1749741145577356408,1749741145572868587,0
8,1749741145582986840,1749741145582394994,1749741145582394994,1749741145582991506,16.3212,561.6354,33.9200,0.0277,-0.0149,0.0128,-1.0729,0.6269,-8.4625,0.0000,0.0000,0.0000,0.0601,-0.1287,0.0186,0.0163,-0.0146,0.0080,-0.0591,-1.7882,-0.1011,0.0000,-0.0000,0.0002,0.0000,324267419,1749741145582586110,-0.0591,-1.7882,-0.1011,0.9999,0.0057,-0.0019,0.0093,0.0000,0.0000,0.0000,0.00000000,0.00000000,0.000,0.000,0.000,0.000,0.000,0,0,0.000,0.000,0.000,0.000,0.000,0,0,0,0,0,0,0,0.0000,0.0000,-0.0500,0.0000,0.0000,0.0000,0.0000,0.0000,0.0000,0.0000,0.0000,0.0000,0.0000,0.0000,0.0000,0.0000,0.0000,0.0000,0.0000,0.0000,0.0000,0.0000,0.0000,0.0000,0.0000,0.0000,0.0000,0.0000,0.0000,0.0000,0.0000,0.0000,0.0000,0.0000,-0.0500,0.2072,0.2072,0.2072,0.2072,1,5,1749741145582399369,1749741145577375991,1749741145582612358,1749741145582594359,1749741145582624316,1749741145582626108,1749741145582947342,1749741145582953425,1749741145582988048,1749741145577373866,0
9,1749741145587738690,1749741145587151885,1749741145587151885,1749741145587743356,16.3094,561.7230,33.9200,0.0128,-0.0213,0.0107,-0.9819,0.5694,-8.6081,0.0000,0.0000,0.0000,0.0601,-0.1288,0.0186,0.0151,-0.0169,0.0089,-0.0591,-1.7882,-0.1011,0.0000,-0.0001,0.0001,0.0000,324276112,1749741145587338043,-0.0591,-1.7882,-0.1011,0.9999,0.0057,-0.0019,0.0093,0.0000,0.0000,0.0000,0.00000000,0.00000000,0.000,0.000,0.000,0.000,0.000,0,0,0.000,0.000,0.000,0.000,0.000,0,0,0,0,0,0,0,0.0000,0.0000,-0.0500,0.0000,0.0000,0.0000,0.0000,0.0000,0.0000,0.0000,0.0000,0.0000,0.0000,0.0000,0.0000,0.0000,0.0000,0.0000,0.0000,0.0000,0.0000,0.0000,0.0000,0.0000,0.0000,0.0000,0.0000,0.0000,0.0000,0.0000,0.0000,0.0000,0.0000,0.0000,-0.0500,0.2072,0.2072,0.2072,0.2072,1,5,1749741145587156385,1749741145583379904,1749741145587363791,1749741145587346542,1749741145587375249,1749741145587377041,1749741145587698692,1749741145587704858,1749741145587739856,1749741145583005297,0
10,1749741145593092385,1749741145592657281,1749741145592657281,1749741145593097426,16.2978,561.7230,33.9200,0.0011,-0.0096,0.0149,-0.5197,0.5670,-7.7611,0.0000,0.0000,0.0000,0.0600,-0.1289,0.0186,0.0104,-0.0144,0.0109,-0.0591,-1.7882,-0.1011,0.0000,-0.0001,0.0001,0.0000,324276112,1749741145587338043,-0.0591,-1.7882,-0.1011,0.9999,0.0057,-0.0019,0.0093,0.0000,0.0000,0.0000,0.00000000,0.00000000,0.000,0.000,0.000,0.000,0.000,0,0,0.000,0.000,0.000,0.000,0.000,0,0,0,0,0,0,0,0.0000,0.0000,-0.0500,0.0000,0.0000,0.0000,0.0000,0.0000,0.0000,0.0000,0.0000,0.0000,0.0000,0.0000,0.0000,0.0000,0.0000,0.0000,0.0000,0.0000,0.0000,0.0000,0.0000,0.0000,0.0000,0.0000,0.0000,0.0000,0.0000,0.0000,0.0000,0.0000,0.0000,0.0000,-0.0500,0.2072,0.2072,0.2072,0.2072,1,5,1749741145592662198,1749741145587757897,1749741145592716695,1749741145592703362,1749741145592727528,1749741145592729236,1749741145593052512,1749741145593058720,1749741145593093593,1749741145587755981,0
11,1749741145597550666,1749741145596925905,1749741145596925905,1749741145597555374,16.2792,561.7230,33.9200,0.0415,-0.0064,-0.0075,-0.9125,0.5288,-8.2741,0.0000,0.0000,0.0000,0.0601,-0.1289,0.0187,0.0208,-0.0118,0.0048,-0.0590,-1.7882,-0.1011,0.0003,-0.0000,0.0002,0.0000,324284075,1749741145597117271,-0.0590,-1.7882,-0.1011,0.9999,0.0058,-0.0019,0.0094,0.0000,0.0000,0.0000,0.00000000,0.00000000,0.000,0.000,0.000,0.000,0.000,0,0,0.000,0.000,0.000,0.000,0.000,0,0,0,0,0,0,0,0.0000,0.0000,-0.0500,0.0000,0.0000,0.0000,0.0000,0.0000,0.0000,0.0000,0.0000,0.0000,0.0000,0.0000,0.0000,0.0000,0.0000,0.0000,0.0000,0.0000,0.0000,0.0000,0.0000,0.0000,0.0000,0.0000,0.0000,0.0000,0.0000,0.0000,0.0000,0.0000,0.0000,0.0000,-0.0500,0.2072,0.2072,0.2072,0.2072,1,5,1749741145596930321,1749741145593112342,1749741145597143186,1749741145597125604,1749741145597154977,1749741145597156727,1749741145597512085,1749741145597517043,1749741145597551874,1749741145593110009,0
12,1749741145602740869,1749741145602304516,1749741145602304516,1749741145602745577,16.2603,561.7230,33.9200,0.0064,-0.0288,0.0021,-1.9854,0.9522,-8.7441,0.0000,0.0000,0.0000,0.0600,-0.1290,0.0187,0.0160,-0.0174,0.0039,-0.0590,-1.7882,-0.1011,0.0003,-0.0000,0.0002,0.0000,324284075,1749741145597117271,-0.0590,-1.7882,-0.1011,0.9999,0.0058,-0.0019,0.0094,0.0000,0.0000,0.0000,0.00000000,0.00000000,0.000,0.000,0.000,0.000,0.000,0,0,0.000,0.000,0.000,0.000,0.000,0,0,0,0,0,0,0,0.0000,0.0000,-0.0500,0.0000,0.0000,0.0000,0.0000,0.0000,0.0000,0.0000,0.0000,0.0000,0.0000,0.0000,0.0000,0.0000,0.0000,0.0000,0.0000,0.0000,0.0000,0.0000,0.0000,0.0000,0.0000,0.0000,0.0000,0.0000,0.0000,0.0000,0.0000,0.0000,0.0000,0.0000,-0.0500,0.2072,0.2072,0.2072,0.2072,1,5,1749741145602309349,1749741145597570040,1749741145602363221,1749741145602349847,1749741145602374137,1749741145602375804,1749741145602701330,1749741145602707163,1749741145602742078,1749741145597568082,0
13,1749741145607913240,1749741145607320769,1749741145607320769,1749741145607918240,16.2480,561.7230,33.9200,-0.0245,-0.0362,-0.0011,-0.9699,1.4068,-9.1735,0.0000,0.0000,0.0000,0.0598,-0.1293,0.0188,0.0025,-0.0237,0.0022,-0.0590,-1.7882,-0.1011,0.0003,-0.0000,0.0001,0.0000,324292398,1749741145607512426,-0.0590,-1.7882,-0.1011,0.9999,0.0058,-0.0019,0.0094,0.0000,0.0000,0.0000,0.00000000,0.00000000,0.000,0.000,0.000,0.000,0.000,0,0,0.000,0.000,0.000,0.000,0.000,0,0,0,0,0,0,0,0.0000,0.0000,-0.0500,0.0000,0.0000,0.0000,0.0000,0.0000,0.0000,0.0000,0.0000,0.0000,0.0000,0.0000,0.0000,0.0000,0.0000,0.0000,0.0000,0.0000,0.0000,0.0000,0.0000,0.0000,0.0000,0.0000,0.0000,0.0000,0.0000,0.0000,0.0000,0.0000,0.0000,0.0000,-0.0500,0.2072,0.2072,0.2072,0.2072,1,5,1749741145607325644,1749741145602759993,1749741145607538842,1749741145607520634,1749741145607550383,1749741145607552133,1749741145607873575,1749741145607879658,1749741145607914407,1749741145602758118,0
14,1749741145612604135,1749741145612012372,1749741145612012372,1749741145612608801,16.2381,561.7230,33.9200,0.0128,0.0447,-0.0394,-0.7712,0.6340,-9.3668,0.0000,0.0000,0.0000,0.0597,-0.1290,0.0186,0.0059,-0.0009,-0.0116,-0.0591,-1.7883,-0.1011,-0.0005,-0.0003,0.0001,0.0000,324300404,1749741145612203571,-0.0591,-1.7883,-0.1011,0.9999,0.0057,-0.0019,0.0093,0.0000,0.0000,0.0000,0.00000000,0.00000000,0.000,0.000,0.000,0.000,0.000,0,0,0.000,0.000,0.000,0.000,0.000,0,0,0,0,0,0,0,0.0000,0.0000,-0.0500,0.0000,0.0000,0.0000,0.0000,0.0000,0.0000,0.0000,0.0000,0.0000,0.0000,0.0000,0.0000,0.0000,0.0000,0.0000,0.0000,0.0000,0.0000,0.0000,0.0000,0.0000,0.0000,0.0000,0.0000,0.0000,0.0000,0.0000,0.0000,0.0000,0.0000,0.0000,-0.0500,0.2072,0.2072,0.2072,0.2072,1,5,1749741145612016872,1749741145607932531,1749741145612229528,1749741145612211904,1749741145612241402,1749741145612243194,1749741145612565012,1749741145612570678,1749741145612605343,1749741145607930614,0
15,1749741145617513727,1749741145617074915,1749741145617074915,1749741145617518810,16.2267,561.7230,33.9200,0.0373,-0.0181,-0.0202,-1.4944,-0.1914,-9.0184,0.0000,0.0000,0.0000,0.0598,-0.1290,0.0186,0.0164,-0.0066,-0.0145,-0.0591,-1.7883,-0.1011,-0.0005,-0.0003,0.0001,0.0000,324300404,1749741145612203571,-0.0591,-1.7883,-0.1011,0.9999,0.0057,-0.0019,0.0093,0.0000,0.0000,0.0000,0.00000000,0.00000000,0.000,0.000,0.000,0.000,0.000,0,0,0.000,0.000,0.000,0.000,0.000,0,0,0,0,0,0,0,0.0000,0.0000,-0.0500,0.0000,0.0000,0.0000,0.0000,0.0000,0.0000,0.0000,0.0000,0.0000,0.0000,0.0000,0.0000,0.0000,0.0000,0.0000,0.0000,0.0000,0.0000,0.0000,0.0000,0.0000,0.0000,0.0000,0.0000,0.0000,0.0000,0.0000,0.0000,0.0000,0.0000,0.0000,-0.0500,0.2072,0.2072,0.2072,0.2072,1,5,1749741145617079415,1749741145612623092,1749741145617134662,1749741145617121329,1749741145617145745,1749741145617147411,1749741145617474229,1749741145617480270,1749741145617514893,1749741145612621175,0
16,1749741145623095619,1749741145622503565,1749741145622503565,1749741145623100327,16.2185,561.7230,33.9200,0.0075,-0.0746,0.0884,-1.9183,-0.1244,-9.2451,0.0000,0.0000,0.0000,0.0597,-0.1295,0.0185,0.0134,-0.0293,0.0198,-0.0591,-1.7883,-0.1011,-0.0005,-0.0003,0.0000,0.0000,324309940,1749741145622695430,-0.0591,-1.7883,-0.1011,0.9999,0.0057,-0.0019,0.0093,0.0000,0.0000,0.0000,0.00000000,0.00000000,0.000,0.000,0.000,0.000,0.000,0,0,0.000,0.000,0.000,0.000,0.000,0,0,0,0,0,0,0,0.0000,0.0000,-0.0500,0.0000,0.0000,0.0000,0.0000,0.0000,0.0000,0.0000,0.0000,0.0000,0.0000,0.0000,0.0000,0.0000,0.0000,0.0000,0.0000,0.0000,0.0000,0.0000,0.0000,0.0000,0.0000,0.0000,0.0000,0.0000,0.0000,0.0000,0.0000,0.0000,0.0000,0.0000,-0.0500,0.2072,0.2072,0.2072,0.2072,1,5,1749741145622508023,1749741145617533351,1749741145622722137,1749741145622703972,1749741145622733554,1749741145622735720,1749741145623056829,1749741145623062454,1749741145623096827,1749741145617531518,0
17,1749741145627662853,1749741145627227458,1749741145627227458,1749741145627667519,16.2098,561.7230,33.9200,-0.0192,-0.0117,0.0565,-0.6227,1.0503,-9.4312,0.0000,0.0000,0.0000,0.0596,-0.1296,0.0185,0.0025,-0.0234,0.0320,-0.0591,-1.7883,-0.1011,-0.0005,-0.0003,0.0000,0.0000,324309940,1749741145622695430,-0.0591,-1.7883,-0.1011,0.9999,0.0057,-0.0019,0.0093,0.0000,0.0000,0.0000,0.00000000,0.00000000,0.000,0.000,0.000,0.000,0.000,0,0,0.000,0.000,0.000,0.000,0.000,0,0,0,0,0,0,0,0.0000,0.0000,-0.0500,0.0000,0.0000,0.0000,0.0000,0.0000,0.0000,0.0000,0.0000,0.0000,0.0000,0.0000,0.0000,0.0000,0.0000,0.0000,0.0000,0.0000,0.0000,0.0000,0.0000,0.0000,0.0000,0.0000,0.0000,0.0000,0.0000,0.0000,0.0000,0.0000,0.0000,0.0000,-0.0500,0.2072,0.2072,0.2072,0.2072,1,5,1749741145627232124,1749741145623114577,1749741145627287746,1749741145627274664,1749741145627298746,1749741145627300371,1749741145627622938,1749741145627629271,1749741145627664061,1749741145623112660,0
18,1749741145633029006,1749741145632370080,1749741145632370080,1749741145633033756,16.2025,561.7230,33.9200,0.0362,0.0437,-0.0000,-0.1365,0.7632,-9.7055,0.0000,0.0000,0.0000,0.0596,-0.1293,0.0186,0.0138,-0.0011,0.0213,-0.0591,-1.7882,-0.1011,-0.0005,-0.0000,-0.0000,0.0000,324318009,1749741145632561404,-0.0591,-1.7882,-0.1011,0.9999,0.0057,-0.0018,0.0093,0.0000,0.0000,0.0000,0.00000000,0.00000000,0.000,0.000,0.000,0.000,0.000,0,0,0.000,0.000,0.000,0.000,0.000,0,0,0,0,0,0,0,0.0000,0.0000,-0.0500,0.0000,0.0000,0.0000,0.0000,0.0000,0.0000,0.0000,0.0000,0.0000,0.0000,0.0000,0.0000,0.0000,0.0000,0.0000,0.0000,0.0000,0.0000,0.0000,0.0000,0.0000,0.0000,0.0000,0.0000,0.0000,0.0000,0.0000,0.0000,0.0000,0.0000,0.0000,-0.0500,0.2072,0.2072,0.2072,0.2072,1,5,1749741145632374538,1749741145627682060,1749741145632587736,1749741145632569695,1749741145632599069,1749741145632601235,1749741145632989883,1749741145632995883,1749741145633030214,1749741145627680227,0
19,1749741145637402166,1749741145636846902,1749741145636846902,1749741145637406583,16.1941,561.6066,33.9200,0.0394,-0.0096,0.0618,-0.5628,-1.3662,-10.9820,0.0000,0.0000,0.0000,0.0596,-0.1293,0.0186,0.0223,-0.0039,0.0348,-0.0590,-1.7882,-0.1011,0.0007,0.0001,0.0002,0.0000,324325903,1749741145637076682,-0.0590,-1.7882,-0.1011,0.9999,0.0058,-0.0019,0.0093,0.0000,0.0000,0.0000,0.00000000,0.00000000,0.000,0.000,0.000,0.000,0.000,0,0,0.000,0.000,0.000,0.000,0.000,0,0,0,0,0,0,0,0.0000,0.0000,-0.0500,0.0000,0.0000,0.0000,0.0000,0.0000,0.0000,0.0000,0.0000,0.0000,0.0000,0.0000,0.0000,0.0000,0.0000,0.0000,0.0000,0.0000,0.0000,0.0000,0.0000,0.0000,0.0000,0.0000,0.0000,0.0000,0.0000,0.0000,0.0000,0.0000,0.0000,0.0000,-0.0500,0.2072,0.2072,0.2072,0.2072,1,5,1749741145636850193,1749741145633404238,1749741145637094431,1749741145637082723,1749741145637103597,1749741145637105264,1749741145637370709,1749741145637376251,1749741145637403333,1749741145633046380,0
20,1749741145642728779,1749741145642295009,1749741145642295009,1749741145642733737,16.1887,561.6066,33.9200,-0.0202,-0.0341,0.0053,-0.9867,0.0837,-10.6408,0.0000,0.0000,0.0000,0.0596,-0.1294,0.0186,0.0081,-0.0140,0.0250,-0.0590,-1.7882,-0.1011,0.0007,0.0001,0.0002,0.0000,324325903,1749741145637076682,-0.0590,-1.7882,-0.1011,0.9999,0.0058,-0.0019,0.0093,0.0000,0.0000,0.0000,0.00000000,0.00000000,0.000,0.000,0.000,0.000,0.000,0,0,0.000,0.000,0.000,0.000,0.000,0,0,0,0,0,0,0,0.0000,0.0000,-0.0500,0.0000,0.0000,0.0000,0.0000,0.0000,0.0000,0.0000,0.0000,0.0000,0.0000,0.0000,0.0000,0.0000,0.0000,0.0000,0.0000,0.0000,0.0000,0.0000,0.0000,0.0000,0.0000,0.0000,0.0000,0.0000,0.0000,0.0000,0.0000,0.0000,0.0000,0.0000,-0.0500,0.2072,0.2072,0.2072,0.2072,1,5,1749741145642299675,1749741145637418415,1749741145642354173,1749741145642341257,1749741145642365214,1749741145642366881,1749741145642689156,1749741145642694906,1749741145642729946,1749741145637416707,0
21,1749741145647889318,1749741145647222434,1749741145647222434,1749741145647894026,16.1832,561.6066,33.9200,-0.0639,-0.0277,-0.0383,-1.1448,1.2035,-8.4721,0.0000,0.0000,0.0000,0.0593,-0.1294,0.0187,-0.0159,-0.0185,0.0039,-0.0591,-1.7882,-0.1010,-0.0000,-0.0001,0.0004,0.0000,324334675,1749741145647493754,-0.0591,-1.7882,-0.1010,0.9999,0.0057,-0.0018,0.0094,0.0000,0.0000,0.0000,0.00000000,0.00000000,0.000,0.000,0.000,0.000,0.000,0,0,0.000,0.000,0.000,0.000,0.000,0,0,0,0,0,0,0,0.0000,0.0000,-0.0500,0.0000,0.0000,0.0000,0.0000,0.0000,0.0000,0.0000,0.0000,0.0000,0.0000,0.0000,0.0000,0.0000,0.0000,0.0000,0.0000,0.0000,0.0000,0.0000,0.0000,0.0000,0.0000,0.0000,0.0000,0.0000,0.0000,0.0000,0.0000,0.0000,0.0000,0.0000,-0.0500,0.2072,0.2072,0.2072,0.2072,1,5,1749741145647226892,1749741145642748653,1749741145647518669,1749741145647502128,1749741145647529585,1749741145647531293,1749741145647850778,1749741145647855611,1749741145647890526,1749741145642746820,0
22,1749741145652709622,1749741145652275519,1749741145652275519,1749741145652714330,16.1767,561.6066,33.9200,0.0160,-0.0181,0.0085,-0.6706,0.0239,-8.7488,0.0000,0.0000,0.0000,0.0592,-0.1295,0.0187,-0.0053,-0.0184,0.0054,-0.0591,-1.7882,-0.1010,-0.0000,-0.0001,0.0004,0.0000,324334675,1749741145647493754,-0.0591,-1.7882,-0.1010,0.9999,0.0057,-0.0018,0.0094,0.0000,0.0000,0.0000,0.00000000,0.00000000,0.000,0.000,0.000,0.000,0.000,0,0,0.000,0.000,0.000,0.000,0.000,0,0,0,0,0,0,0,0.0000,0.0000,-0.0500,0.0000,0.0000,0.0000,0.0000,0.0000,0.0000,0.0000,0.0000,0.0000,0.0000,0.0000,0.0000,0.0000,0.0000,0.0000,0.0000,0.0000,0.0000,0.0000,0.0000,0.0000,0.0000,0.0000,0.0000,0.0000,0.0000,0.0000,0.0000,0.0000,0.0000,0.0000,-0.0500,0.2072,0.2072,0.2072,0.2072,1,5,1749741145652279935,1749741145647908775,1749741145652334974,1749741145652321850,1749741145652345807,1749741145652347432,1749741145652670458,1749741145652676207,1749741145652710831,1749741145647906858,0
23,1749741145657322937,1749741145656729091,1749741145656729091,1749741145657327645,16.1711,561.6066,33.9200,0.0298,0.0053,-0.0085,-0.1533,0.2775,-9.6364,0.0000,0.0000,0.0000,0.0593,-0.1295,0.0193,0.0064,-0.0105,0.0008,-0.0591,-1.7882,-0.1011,0.0005,-0.0000,0.0001,0.0000,324342854,1749741145656921332,-0.0591,-1.7882,-0.1011,0.9999,0.0058,-0.0018,0.0096,0.0000,0.0000,0.0000,0.00000000,0.00000000,0.000,0.000,0.000,0.000,0.000,0,0,0.000,0.000,0.000,0.000,0.000,0,0,0,0,0,0,0,0.0000,0.0000,-0.0500,0.0000,0.0000,0.0000,0.0000,0.0000,0.0000,0.0000,0.0000,0.0000,0.0000,0.0000,0.0000,0.0000,0.0000,0.0000,0.0000,0.0000,0.0000,0.0000,0.0000,0.0000,0.0000,0.0000,0.0000,0.0000,0.0000,0.0000,0.0000,0.0000,0.0000,0.0000,-0.0500,0.2072,0.2072,0.2072,0.2072,1,5,1749741145656733925,1749741145652728705,1749741145656947706,1749741145656929665,1749741145656959205,1749741145656960955,1749741145657283939,1749741145657289606,1749741145657324146,1749741145652726830,0
24,1749741145662477059,1749741145661968584,1749741145661968584,1749741145662482184,16.1665,561.6066,33.9200,0.0383,0.0309,-0.0479,0.0551,-0.4689,-8.6319,0.0000,0.0000,0.0000,0.0594,-0.1292,0.0193,0.0171,0.0033,-0.0155,-0.0591,-1.7882,-0.1011,0.0005,-0.0000,0.0001,0.0000,324342854,1749741145656921332,-0.0591,-1.7882,-0.1011,0.9999,0.0058,-0.0018,0.0096,0.0000,0.0000,0.0000,0.00000000,0.00000000,0.000,0.000,0.000,0.000,0.000,0,0,0.000,0.000,0.000,0.000,0.000,0,0,0,0,0,0,0,0.0000,0.0000,-0.0500,0.0000,0.0000,0.0000,0.0000,0.0000,0.0000,0.0000,0.0000,0.0000,0.0000,0.0000,0.0000,0.0000,0.0000,0.0000,0.0000,0.0000,0.0000,0.0000,0.0000,0.0000,0.0000,0.0000,0.0000,0.0000,0.0000,0.0000,0.0000,0.0000,0.0000,0.0000,-0.0500,0.2072,0.2072,0.2072,0.2072,1,5,1749741145661973000,1749741145657341936,1749741145662028123,1749741145662015165,1749741145662039122,1749741145662040789,1749741145662437686,1749741145662443644,1749741145662478226,1749741145657340061,0
25,1749741145667644972,1749741145667054126,1749741145667054126,1749741145667649638,16.1602,561.6066,33.9200,0.0405,-0.0181,-0.0117,-0.5939,-0.2129,-9.6125,0.0000,0.0000,0.0000,0.0597,-0.1292,0.0195,0.0249,-0.0038,-0.0142,-0.0591,-1.7882,-0.1011,0.0005,0.0001,-0.0004,0.0000,324351382,1749741145667245450,-0.0591,-1.7882,-0.1011,0.9999,0.0058,-0.0019,0.0098,0.0000,0.0000,0.0000,0.00000000,0.00000000,0.000,0.000,0.000,0.000,0.000,0,0,0.000,0.000,0.000,0.000,0.000,0,0,0,0,0,0,0,0.0000,0.0000,-0.0500,0.0000,0.0000,0.0000,0.0000,0.0000,0.0000,0.0000,0.0000,0.0000,0.0000,0.0000,0.0000,0.0000,0.0000,0.0000,0.0000,0.0000,0.0000,0.0000,0.0000,0.0000,0.0000,0.0000,0.0000,0.0000,0.0000,0.0000,0.0000,0.0000,0.0000,0.0000,-0.0500,0.2072,0.2072,0.2072,0.2072,1,5,1749741145667058792,1749741145662497475,1749741145667271823,1749741145667253824,1749741145667282990,1749741145667284781,1749741145667605974,1749741145667611682,1749741145667646180,1749741145662495141,0
26,1749741145672549689,1749741145671956177,1749741145671956177,1749741145672554397,16.1605,561.6066,33.9200,-0.0224,-0.0501,-0.0138,-1.0873,0.5623,-7.9997,0.0000,0.0000,0.0000,0.0595,-0.1293,0.0193,0.0091,-0.0192,-0.0141,-0.0591,-1.7882,-0.1012,-0.0000,0.0001,-0.0006,0.0000,324359392,1749741145672147209,-0.0591,-1.7882,-0.1012,0.9999,0.0057,-0.0018,0.0097,0.0000,0.0000,0.0000,0.00000000,0.00000000,0.000,0.000,0.000,0.000,0.000,0,0,0.000,0.000,0.000,0.000,0.000,0,0,0,0,0,0,0,0.0000,0.0000,-0.0500,0.0000,0.0000,0.0000,0.0000,0.0000,0.0000,0.0000,0.0000,0.0000,0.0000,0.0000,0.0000,0.0000,0.0000,0.0000,0.0000,0.0000,0.0000,0.0000,0.0000,0.0000,0.0000,0.0000,0.0000,0.0000,0.0000,0.0000,0.0000,0.0000,0.0000,0.0000,-0.0500,0.2072,0.2072,0.2072,0.2072,1,5,1749741145671960801,1749741145667664304,1749741145672173958,1749741145672155958,1749741145672185790,1749741145672187540,1749741145672509816,1749741145672515691,1749741145672550856,1749741145667662471,0
27,1749741145677447782,1749741145677015678,1749741145677015678,1749741145677452698,16.1626,561.6066,33.9200,-0.0373,-0.0021,-0.0192,-0.4598,1.8208,-9.2188,0.0000,0.0000,0.0000,0.0593,-0.1293,0.0193,-0.0063,-0.0135,-0.0158,-0.0591,-1.7882,-0.1012,-0.0000,0.0001,-0.0006,0.0000,324359392,1749741145672147209,-0.0591,-1.7882,-0.1012,0.9999,0.0057,-0.0018,0.0097,0.0000,0.0000,0.0000,0.00000000,0.00000000,0.000,0.000,0.000,0.000,0.000,0,0,0.000,0.000,0.000,0.000,0.000,0,0,0,0,0,0,0,0.0000,0.0000,-0.0500,0.0000,0.0000,0.0000,0.0000,0.0000,0.0000,0.0000,0.0000,0.0000,0.0000,0.0000,0.0000,0.0000,0.0000,0.0000,0.0000,0.0000,0.0000,0.0000,0.0000,0.0000,0.0000,0.0000,0.0000,0.0000,0.0000,0.0000,0.0000,0.0000,0.0000,0.0000,-0.0500,0.2072,0.2072,0.2072,0.2072,1,5,1749741145677020511,1749741145672569188,1749741145677073717,1749741145677060467,1749741145677084675,1749741145677086383,1749741145677408492,1749741145677414158,1749741145677448948,1749741145672567313,0
28,1749741145682723523,1749741145682027015,1749741145682027015,1749741145682728189,16.1641,561.6066,33.9200,0.0266,-0.0138,0.0298,0.5293,-0.1747,-8.9540,0.0000,0.0000,0.0000,0.0592,-0.1293,0.0190,0.0046,-0.0136,-0.0006,-0.0591,-1.7883,-0.1012,-0.0002,-0.0002,-0.0005,0.0000,324367615,1749741145682324584,-0.0591,-1.7883,-0.1012,0.9999,0.0056,-0.0018,0.0095,0.0000,0.0000,0.0000,0.00000000,0.00000000,0.000,0.000,0.000,0.000,0.000,0,0,0.000,0.000,0.000,0.000,0.000,0,0,0,0,0,0,0,0.0000,0.0000,-0.0500,0.0000,0.0000,0.0000,0.0000,0.0000,0.0000,0.0000,0.0000,0.0000,0.0000,0.0000,0.0000,0.0000,0.0000,0.0000,0.0000,0.0000,0.0000,0.0000,0.0000,0.0000,0.0000,0.0000,0.0000,0.0000,0.0000,0.0000,0.0000,0.0000,0.0000,0.0000,-0.0500,0.2072,0.2072,0.2072,0.2072,1,5,1749741145682031390,1749741145677467572,1749741145682350958,1749741145682333208,1749741145682361790,1749741145682363457,1749741145682684816,1749741145682690524,1749741145682724689,1749741145677465656,0
29,1749741145688203545,1749741145687613407,1749741145687613407,1749741145688208253,16.1701,561.4558,33.9300,0.0671,-0.0192,0.0266,-0.7592,-1.3901,-10.0801,0.0000,0.0000,0.0000,0.0595,-0.1293,0.0191,0.0255,-0.0155,0.0085,-0.0590,-1.7883,-0.1011,0.0009,-0.0001,0.0000,0.0000,324375926,1749741145687804606,-0.0590,-1.7883,-0.1011,0.9999,0.0057,-0.0020,0.0095,0.0000,0.0000,0.0000,0.00000000,0.00000000,0.000,0.000,0.000,0.000,0.000,0,0,0.000,0.000,0.000,0.000,0.000,0,0,0,0,0,0,0,0.0000,0.0000,-0.0500,0.0000,0.0000,0.0000,0.0000,0.0000,0.0000,0.0000,0.0000,0.0000,0.0000,0.0000,0.0000,0.0000,0.0000,0.0000,0.0000,0.0000,0.0000,0.0000,0.0000,0.0000,0.0000,0.0000,0.0000,0.0000,0.0000,0.0000,0.0000,0.0000,0.0000,0.0000,-0.0500,0.2072,0.2072,0.2072,0.2072,1,5,1749741145687617907,1749741145683430404,1749741145687830397,1749741145687812939,1749741145687842146,1749741145687843938,1749741145688163630,1749741145688169547,1749741145688204753,1749741145682740522,0
30,1749741145692640285,1749741145692206348,1749741145692206348,1749741145692644993,16.1762,561.4558,33.9300,0.0064,-0.0075,0.0149,-1.4896,0.2656,-9.8344,0.0000,0.0000,0.0000,0.0596,-0.1293,0.0191,0.0191,-0.0128,0.0106,-0.0590,-1.7883,-0.1011,0.0009,-0.0001,0.0000,0.0000,324375926,1749741145687804606,-0.0590,-1.7883,-0.1011,0.9999,0.0057,-0.0020,0.0095,0.0000,0.0000,0.0000,0.00000000,0.00000000,0.000,0.000,0.000,0.000,0.000,0,0,0.000,0.000,0.000,0.000,0.000,0,0,0,0,0,0,0,0.0000,0.0000,-0.0500,0.0000,0.0000,0.0000,0.0000,0.0000,0.0000,0.0000,0.0000,0.0000,0.0000,0.0000,0.0000,0.0000,0.0000,0.0000,0.0000,0.0000,0.0000,0.0000,0.0000,0.0000,0.0000,0.0000,0.0000,0.0000,0.0000,0.0000,0.0000,0.0000,0.0000,0.0000,-0.0500,0.2072,0.2072,0.2072,0.2072,1,5,1749741145692210890,1749741145688222919,1749741145692265554,1749741145692252804,1749741145692276386,1749741145692278053,1749741145692600454,1749741145692606454,1749741145692641494,1749741145688221044,0
31,1749741145697353929,1749741145696775374,1749741145696775374,1749741145697358595,16.1885,561.4558,33.9300,-0.0213,-0.0075,0.0586,-0.5652,0.9451,-8.3743,0.0000,0.0000,0.0000,0.0594,-0.1293,0.0188,0.0056,-0.0110,0.0266,-0.0590,-1.7882,-0.1011,0.0010,0.0001,0.0003,0.0000,324384186,1749741145696954073,-0.0590,-1.7882,-0.1011,0.9999,0.0057,-0.0020,0.0094,0.0000,0.0000,0.0000,0.00000000,0.00000000,0.000,0.000,0.000,0.000,0.000,0,0,0.000,0.000,0.000,0.000,0.000,0,0,0,0,0,0,0,0.0000,0.0000,-0.0500,0.0000,0.0000,0.0000,0.0000,0.0000,0.0000,0.0000,0.0000,0.0000,0.0000,0.0000,0.0000,0.0000,0.0000,0.0000,0.0000,0.0000,0.0000,0.0000,0.0000,0.0000,0.0000,0.0000,0.0000,0.0000,0.0000,0.0000,0.0000,0.0000,0.0000,0.0000,-0.0500,0.2072,0.2072,0.2072,0.2072,1,5,1749741145696779582,1749741145692659701,1749741145696979405,1749741145696962615,1749741145696991321,1749741145696993071,1749741145697314056,1749741145697320680,1749741145697355095,1749741145692657909,0
32,1749741145702206815,1749741145701697840,1749741145701697840,1749741145702211482,16.2025,561.4558,33.9300,-0.0202,-0.0298,0.0415,0.6227,0.4929,-9.1831,0.0000,0.0000,0.0000,0.0591,-0.1294,0.0188,-0.0030,-0.0173,0.0316,-0.0590,-1.7882,-0.1011,0.0010,0.0001,0.0003,0.0000,324384186,1749741145696954073,-0.0590,-1.7882,-0.1011,0.9999,0.0057,-0.0020,0.0094,0.0000,0.0000,0.0000,0.00000000,0.00000000,0.000,0.000,0.000,0.000,0.000,0,0,0.000,0.000,0.000,0.000,0.000,0,0,0,0,0,0,0,0.0000,0.0000,-0.0500,0.0000,0.0000,0.0000,0.0000,0.0000,0.0000,0.0000,0.0000,0.0000,0.0000,0.0000,0.0000,0.0000,0.0000,0.0000,0.0000,0.0000,0.0000,0.0000,0.0000,0.0000,0.0000,0.0000,0.0000,0.0000,0.0000,0.0000,0.0000,0.0000,0.0000,0.0000,-0.0500,0.2072,0.2072,0.2072,0.2072,1,5,1749741145701702298,1749741145697373761,1749741145701752379,1749741145701739505,1749741145701762962,1749741145701764629,1749741145702087071,1749741145702172692,1749741145702207982,1749741145697371844,0
33,1749741145707460765,1749741145706867753,1749741145706867753,1749741145707465515,16.2083,561.4558,33.9300,0.0490,-0.0341,-0.0064,-0.0192,-0.4833,-8.6176,0.0000,0.0000,0.0000,0.0593,-0.1294,0.0186,0.0143,-0.0229,0.0189,-0.0590,-1.7883,-0.1011,0.0007,-0.0002,0.0004,0.0000,324392379,1749741145707059660,-0.0590,-1.7883,-0.1011,0.9999,0.0057,-0.0020,0.0093,0.0000,0.0000,0.0000,0.00000000,0.00000000,0.000,0.000,0.000,0.000,0.000,0,0,0.000,0.000,0.000,0.000,0.000,0,0,0,0,0,0,0,0.0000,0.0000,-0.0500,0.0000,0.0000,0.0000,0.0000,0.0000,0.0000,0.0000,0.0000,0.0000,0.0000,0.0000,0.0000,0.0000,0.0000,0.0000,0.0000,0.0000,0.0000,0.0000,0.0000,0.0000,0.0000,0.0000,0.0000,0.0000,0.0000,0.0000,0.0000,0.0000,0.0000,0.0000,-0.0500,0.2072,0.2072,0.2072,0.2072,1,5,1749741145706872253,1749741145702226564,1749741145707085700,1749741145707067910,1749741145707097033,1749741145707098825,1749741145707420809,1749741145707426850,1749741145707461974,1749741145702224148,0
34,1749741145712910498,1749741145712320985,1749741145712320985,1749741145712915622,16.2115,561.4558,33.9300,0.0256,-0.0202,-0.0234,-1.5711,-0.2105,-11.1466,0.0000,0.0000,0.0000,0.0594,-0.1294,0.0188,0.0181,-0.0220,0.0048,-0.0591,-1.7883,-0.1011,0.0005,0.0000,-0.0001,0.0000,324401133,1749741145712506226,-0.0591,-1.7883,-0.1011,0.9999,0.0057,-0.0019,0.0094,0.0000,0.0000,0.0000,0.00000000,0.00000000,0.000,0.000,0.000,0.000,0.000,0,0,0.000,0.000,0.000,0.000,0.000,0,0,0,0,0,0,0,0.0000,0.0000,-0.0500,0.0000,0.0000,0.0000,0.0000,0.0000,0.0000,0.0000,0.0000,0.0000,0.0000,0.0000,0.0000,0.0000,0.0000,0.0000,0.0000,0.0000,0.0000,0.0000,0.0000,0.0000,0.0000,0.0000,0.0000,0.0000,0.0000,0.0000,0.0000,0.0000,0.0000,0.0000,-0.0500,0.2072,0.2072,0.2072,0.2072,1,5,1749741145712325401,1749741145707480389,1749741145712532100,1749741145712514850,1749741145712543766,1749741145712545474,1749741145712871500,1749741145712877208,1749741145712911956,1749741145707478515,0
35,1749741145717794841,1749741145717362321,1749741145717362321,1749741145717799549,16.2156,561.4558,33.9300,0.0000,-0.0032,0.0224,-1.4250,0.8278,-10.9581,0.0000,0.0000,0.0000,0.0594,-0.1295,0.0188,0.0121,-0.0157,0.0107,-0.0591,-1.7883,-0.1011,0.0005,0.0000,-0.0001,0.0000,324401133,1749741145712506226,-0.0591,-1.7883,-0.1011,0.9999,0.0057,-0.0019,0.0094,0.0000,0.0000,0.0000,0.00000000,0.00000000,0.000,0.000,0.000,0.000,0.000,0,0,0.000,0.000,0.000,0.000,0.000,0,0,0,0,0,0,0,0.0000,0.0000,-0.0500,0.0000,0.0000,0.0000,0.0000,0.0000,0.0000,0.0000,0.0000,0.0000,0.0000,0.0000,0.0000,0.0000,0.0000,0.0000,0.0000,0.0000,0.0000,0.0000,0.0000,0.0000,0.0000,0.0000,0.0000,0.0000,0.0000,0.0000,0.0000,0.0000,0.0000,0.0000,-0.0500,0.2072,0.2072,0.2072,0.2072,1,5,1749741145717366445,1749741145712929913,1749741145717417318,1749741145717403652,1749741145717428317,1749741145717429942,1749741145717754968,1749741145717761134,1749741145717796008,1749741145712928080,0
36,1749741145722910173,1749741145722318910,1749741145722318910,1749741145722914839,16.2175,561.4558,33.9300,-0.0266,0.0107,-0.0000,0.7640,0.0790,-8.6295,0.0000,0.0000,0.0000,0.0591,-0.1294,0.0190,-0.0008,-0.0069,0.0071,-0.0590,-1.7882,-0.1011,0.0006,0.0003,-0.0003,0.0000,324409032,1749741145722510859,-0.0590,-1.7882,-0.1011,0.9999,0.0057,-0.0019,0.0095,0.0000,0.0000,0.0000,0.00000000,0.00000000,0.000,0.000,0.000,0.000,0.000,0,0,0.000,0.000,0.000,0.000,0.000,0,0,0,0,0,0,0,0.0000,0.0000,-0.0500,0.0000,0.0000,0.0000,0.0000,0.0000,0.0000,0.0000,0.0000,0.0000,0.0000,0.0000,0.0000,0.0000,0.0000,0.0000,0.0000,0.0000,0.0000,0.0000,0.0000,0.0000,0.0000,0.0000,0.0000,0.0000,0.0000,0.0000,0.0000,0.0000,0.0000,0.0000,-0.0500,0.2072,0.2072,0.2072,0.2072,1,5,1749741145722323452,1749741145717815298,1749741145722536650,1749741145722519067,1749741145722548482,1749741145722550191,1749741145722871008,1749741145722876716,1749741145722911340,1749741145717813423,0
37,1749741145727747852,1749741145727312207,1749741145727312207,1749741145727752560,16.2197,561.4558,33.9300,0.0714,-0.0373,-0.0277,0.2850,-0.6221,-9.4049,0.0000,0.0000,0.0000,0.0594,-0.1294,0.0190,0.0232,-0.0171,-0.0045,-0.0590,-1.7882,-0.1011,0.0006,0.0003,-0.0003,0.0000,324409032,1749741145722510859,-0.0590,-1.7882,-0.1011,0.9999,0.0057,-0.0019,0.0095,0.0000,0.0000,0.0000,0.00000000,0.00000000,0.000,0.000,0.000,0.000,0.000,0,0,0.000,0.000,0.000,0.000,0.000,0,0,0,0,0,0,0,0.0000,0.0000,-0.0500,0.0000,0.0000,0.0000,0.0000,0.0000,0.0000,0.0000,0.0000,0.0000,0.0000,0.0000,0.0000,0.0000,0.0000,0.0000,0.0000,0.0000,0.0000,0.0000,0.0000,0.0000,0.0000,0.0000,0.0000,0.0000,0.0000,0.0000,0.0000,0.0000,0.0000,0.0000,-0.0500,0.2072,0.2072,0.2072,0.2072,1,5,1749741145727316581,1749741145722930464,1749741145727371620,1749741145727358829,1749741145727382870,1749741145727384495,1749741145727708937,1749741145727714562,1749741145727749060,1749741145722928589,0
38,1749741145732431413,1749741145731851025,1749741145731851025,1749741145732436122,16.2216,561.4558,33.9300,0.0458,-0.0170,-0.0426,-2.1889,0.7058,-8.3170,0.0000,0.0000,0.0000,0.0597,-0.1293,0.0193,0.0308,-0.0171,-0.0172,-0.0591,-1.7883,-0.1012,0.0004,0.0000,-0.0006,0.0000,324417658,1749741145732034475,-0.0591,-1.7883,-0.1012,0.9999,0.0058,-0.0019,0.0096,0.0000,0.0000,0.0000,0.00000000,0.00000000,0.000,0.000,0.000,0.000,0.000,0,0,0.000,0.000,0.000,0.000,0.000,0,0,0,0,0,0,0,0.0000,0.0000,-0.0500,0.0000,0.0000,0.0000,0.0000,0.0000,0.0000,0.0000,0.0000,0.0000,0.0000,0.0000,0.0000,0.0000,0.0000,0.0000,0.0000,0.0000,0.0000,0.0000,0.0000,0.0000,0.0000,0.0000,0.0000,0.0000,0.0000,0.0000,0.0000,0.0000,0.0000,0.0000,-0.0500,0.2072,0.2072,0.2072,0.2072,1,5,1749741145731855442,1749741145727768393,1749741145732060557,1749741145732042641,1749741145732072473,1749741145732074181,1749741145732392415,1749741145732398290,1749741145732432580,1749741145727766518,0
39,1749741145737653449,1749741145737220011,1749741145737220011,1749741145737658365,16.2231,561.8201,33.9300,-0.0682,0.0341,0.0138,-1.0873,2.4715,-10.7148,0.0000,0.0000,0.0000,0.0592,-0.1293,0.0193,-0.0022,-0.0000,-0.0068,-0.0591,-1.7883,-0.1012,0.0004,0.0000,-0.0006,0.0000,324417658,1749741145732034475,-0.0591,-1.7883,-0.1012,0.9999,0.0058,-0.0019,0.0096,0.0000,0.0000,0.0000,0.00000000,0.00000000,0.000,0.000,0.000,0.000,0.000,0,0,0.000,0.000,0.000,0.000,0.000,0,0,0,0,0,0,0,0.0000,0.0000,-0.0500,0.0000,0.0000,0.0000,0.0000,0.0000,0.0000,0.0000,0.0000,0.0000,0.0000,0.0000,0.0000,0.0000,0.0000,0.0000,0.0000,0.0000,0.0000,0.0000,0.0000,0.0000,0.0000,0.0000,0.0000,0.0000,0.0000,0.0000,0.0000,0.0000,0.0000,0.0000,-0.0500,0.2072,0.2072,0.2072,0.2072,1,5,1749741145737224470,1749741145732798645,1749741145737279550,1749741145737266468,1749741145737290341,1749741145737292008,1749741145737614742,1749741145737620450,1749741145737654657,1749741145732448538,0
40,1749741145742705575,1749741145742273638,1749741145742273638,1749741145742710283,16.2245,561.8201,33.9300,-0.0373,0.0181,0.0362,1.1759,-1.4930,-8.7798,0.0000,0.0000,0.0000,0.0587,-0.1291,0.0193,-0.0139,0.0060,0.0075,-0.0591,-1.7883,-0.1012,0.0004,0.0000,-0.0006,0.0000,324417658,1749741145732034475,-0.0591,-1.7883,-0.1012,0.9999,0.0058,-0.0019,0.0096,0.0000,0.0000,0.0000,0.00000000,0.00000000,0.000,0.000,0.000,0.000,0.000,0,0,0.000,0.000,0.000,0.000,0.000,0,0,0,0,0,0,0,0.0000,0.0000,-0.0500,0.0000,0.0000,0.0000,0.0000,0.0000,0.0000,0.0000,0.0000,0.0000,0.0000,0.0000,0.0000,0.0000,0.0000,0.0000,0.0000,0.0000,0.0000,0.0000,0.0000,0.0000,0.0000,0.0000,0.0000,0.0000,0.0000,0.0000,0.0000,0.0000,0.0000,0.0000,-0.0500,0.2072,0.2072,0.2072,0.2072,1,5,1749741145742277513,1749741145737672823,1749741145742328635,1749741145742315178,1749741145742339510,1749741145742341218,1749741145742665536,1749741145742671410,1749741145742706742,1749741145737670948,0
41,1749741145747204604,1749741145746781125,1749741145746781125,1749741145747209312,16.2262,561.8201,33.9300,0.0842,-0.0874,-0.0490,0.2946,-1.6724,-8.6272,0.0000,0.0000,0.0000,0.0593,-0.1293,0.0193,0.0188,-0.0251,-0.0113,-0.0591,-1.7883,-0.1012,0.0004,0.0000,-0.0006,0.0000,324417658,1749741145732034475,-0.0591,-1.7883,-0.1012,0.9999,0.0058,-0.0019,0.0096,0.0000,0.0000,0.0000,0.00000000,0.00000000,0.000,0.000,0.000,0.000,0.000,0,0,0.000,0.000,0.000,0.000,0.000,0,0,0,0,0,0,0,0.0000,0.0000,-0.0500,0.0000,0.0000,0.0000,0.0000,0.0000,0.0000,0.0000,0.0000,0.0000,0.0000,0.0000,0.0000,0.0000,0.0000,0.0000,0.0000,0.0000,0.0000,0.0000,0.0000,0.0000,0.0000,0.0000,0.0000,0.0000,0.0000,0.0000,0.0000,0.0000,0.0000,0.0000,-0.0500,0.2072,0.2072,0.2072,0.2072,1,5,1749741145746785583,1749741145742725241,1749741145746833247,1749741145746819873,1749741145746844247,1749741145746845913,1749741145747165606,1749741145747171981,1749741145747205771,1749741145742723074,0
42,1749741145752851243,1749741145752259106,1749741145752259106,1749741145752856160,16.2279,561.8201,33.9300,0.0341,-0.0266,-0.0064,-3.2714,2.4309,-9.2093,0.0000,0.0000,0.0000,0.0596,-0.1293,0.0193,0.0239,-0.0256,-0.0097,-0.0591,-1.7882,-0.1012,0.0003,0.0001,-0.0006,0.0000,324427119,1749741145752452305,-0.0591,-1.7882,-0.1012,0.9999,0.0056,-0.0019,0.0096,0.0000,0.0000,0.0000,0.00000000,0.00000000,0.000,0.000,0.000,0.000,0.000,0,0,0.000,0.000,0.000,0.000,0.000,0,0,0,0,0,0,0,0.0000,0.0000,-0.0500,0.0000,0.0000,0.0000,0.0000,0.0000,0.0000,0.0000,0.0000,0.0000,0.0000,0.0000,0.0000,0.0000,0.0000,0.0000,0.0000,0.0000,0.0000,0.0000,0.0000,0.0000,0.0000,0.0000,0.0000,0.0000,0.0000,0.0000,0.0000,0.0000,0.0000,0.0000,-0.0500,0.2072,0.2072,0.2072,0.2072,1,5,1749741145752263856,1749741145747223895,1749741145752479012,1749741145752461013,1749741145752490636,1749741145752492428,1749741145752812037,1749741145752817620,1749741145752852410,1749741145747222020,0
43,1749741145757851081,1749741145757272318,1749741145757272318,1749741145757856164,16.2294,561.8201,33.9300,-0.0458,0.0575,0.1150,0.5412,2.5936,-8.9445,0.0000,0.0000,0.0000,0.0590,-0.1293,0.0190,0.0007,0.0021,0.0319,-0.0591,-1.7883,-0.1012,0.0006,-0.0002,-0.0000,0.0000,324434581,1749741145757453684,-0.0591,-1.7883,-0.1012,0.9999,0.0057,-0.0020,0.0095,0.0000,0.0000,0.0000,0.00000000,0.00000000,0.000,0.000,0.000,0.000,0.000,0,0,0.000,0.000,0.000,0.000,0.000,0,0,0,0,0,0,0,0.0000,0.0000,-0.0500,0.0000,0.0000,0.0000,0.0000,0.0000,0.0000,0.0000,0.0000,0.0000,0.0000,0.0000,0.0000,0.0000,0.0000,0.0000,0.0000,0.0000,0.0000,0.0000,0.0000,0.0000,0.0000,0.0000,0.0000,0.0000,0.0000,0.0000,0.0000,0.0000,0.0000,0.0000,-0.0500,0.2072,0.2072,0.2072,0.2072,1,5,1749741145757276776,1749741145752870409,1749741145757479224,1749741145757462017,1749741145757490849,1749741145757492599,1749741145757811791,1749741145757817499,1749741145757852248,1749741145752868534,0
44,1749741145763060575,1749741145762551350,1749741145762551350,1749741145763065325,16.2289,561.8201,33.9300,-0.0011,-0.0213,0.0298,2.6727,-1.8184,-10.2877,0.0000,0.0000,0.0000,0.0587,-0.1292,0.0190,0.0001,-0.0057,0.0312,-0.0591,-1.7883,-0.1012,0.0006,-0.0002,-0.0000,0.0000,324434581,1749741145757453684,-0.0591,-1.7883,-0.1012,0.9999,0.0057,-0.0020,0.0095,0.0000,0.0000,0.0000,0.00000000,0.00000000,0.000,0.000,0.000,0.000,0.000,0,0,0.000,0.000,0.000,0.000,0.000,0,0,0,0,0,0,0,0.0000,0.0000,-0.0500,0.0000,0.0000,0.0000,0.0000,0.0000,0.0000,0.0000,0.0000,0.0000,0.0000,0.0000,0.0000,0.0000,0.0000,0.0000,0.0000,0.0000,0.0000,0.0000,0.0000,0.0000,0.0000,0.0000,0.0000,0.0000,0.0000,0.0000,0.0000,0.0000,0.0000,0.0000,-0.0500,0.2072,0.2072,0.2072,0.2072,1,5,1749741145762555808,1749741145757870622,1749741145762686260,1749741145762673052,1749741145762697760,1749741145762699843,1749741145763021119,1749741145763026743,1749741145763061783,1749741145757868497,0
45,1749741145767817466,1749741145767293492,1749741145767293492,1749741145767822133,16.2308,561.8201,33.9300,0.0597,-0.0948,-0.0937,-2.8787,-1.1102,-9.7485,0.0000,0.0000,0.0000,0.0592,-0.1293,0.0191,0.0199,-0.0354,-0.0104,-0.0590,-1.7882,-0.1011,0.0006,-0.0001,0.0000,0.0000,324442910,1749741145767417194,-0.0590,-1.7882,-0.1011,0.9999,0.0056,-0.0020,0.0096,0.0000,0.0000,0.0000,0.00000000,0.00000000,0.000,0.000,0.000,0.000,0.000,0,0,0.000,0.000,0.000,0.000,0.000,0,0,0,0,0,0,0,0.0000,0.0000,-0.0500,0.0000,0.0000,0.0000,0.0000,0.0000,0.0000,0.0000,0.0000,0.0000,0.0000,0.0000,0.0000,0.0000,0.0000,0.0000,0.0000,0.0000,0.0000,0.0000,0.0000,0.0000,0.0000,0.0000,0.0000,0.0000,0.0000,0.0000,0.0000,0.0000,0.0000,0.0000,-0.0500,0.2072,0.2072,0.2072,0.2072,1,5,1749741145767297867,1749741145763081282,1749741145767443276,1749741145767425361,1749741145767455026,1749741145767456776,1749741145767778010,1749741145767783635,1749741145767818633,1749741145763079033,0
46,1749741145772977005,1749741145772346869,1749741145772346869,1749741145772981921,16.2318,561.8201,33.9300,-0.0075,0.0234,0.0458,-2.8403,3.1941,-9.2928,0.0000,0.0000,0.0000,0.0592,-0.1293,0.0191,0.0108,-0.0158,0.0083,-0.0590,-1.7882,-0.1011,0.0006,-0.0001,0.0000,0.0000,324442910,1749741145767417194,-0.0590,-1.7882,-0.1011,0.9999,0.0056,-0.0020,0.0096,0.0000,0.0000,0.0000,0.00000000,0.00000000,0.000,0.000,0.000,0.000,0.000,0,0,0.000,0.000,0.000,0.000,0.000,0,0,0,0,0,0,0,0.0000,0.0000,-0.0500,0.0000,0.0000,0.0000,0.0000,0.0000,0.0000,0.0000,0.0000,0.0000,0.0000,0.0000,0.0000,0.0000,0.0000,0.0000,0.0000,0.0000,0.0000,0.0000,0.0000,0.0000,0.0000,0.0000,0.0000,0.0000,0.0000,0.0000,0.0000,0.0000,0.0000,0.0000,-0.0500,0.2072,0.2072,0.2072,0.2072,1,5,1749741145772351285,1749741145767838090,1749741145772510986,1749741145772498278,1749741145772522527,1749741145772524277,1749741145772847261,1749741145772853011,1749741145772978338,1749741145767836215,0
47,1749741145777629526,1749741145777134175,1749741145777134175,1749741145777634234,16.2323,561.8201,33.9300,-0.0224,0.0426,0.1214,2.7350,-0.6436,-8.5747,0.0000,0.0000,0.0000,0.0586,-0.1293,0.0186,-0.0003,0.0037,0.0460,-0.0590,-1.7883,-0.1011,0.0007,-0.0003,0.0002,0.0000,324450874,1749741145777228962,-0.0590,-1.7883,-0.1011,0.9999,0.0056,-0.0020,0.0093,0.0000,0.0000,0.0000,0.00000000,0.00000000,0.000,0.000,0.000,0.000,0.000,0,0,0.000,0.000,0.000,0.000,0.000,0,0,0,0,0,0,0,0.0000,0.0000,-0.0500,0.0000,0.0000,0.0000,0.0000,0.0000,0.0000,0.0000,0.0000,0.0000,0.0000,0.0000,0.0000,0.0000,0.0000,0.0000,0.0000,0.0000,0.0000,0.0000,0.0000,0.0000,0.0000,0.0000,0.0000,0.0000,0.0000,0.0000,0.0000,0.0000,0.0000,0.0000,-0.0500,0.2072,0.2072,0.2072,0.2072,1,5,1749741145777139050,1749741145772996712,1749741145777255253,1749741145777237337,1749741145777266544,1749741145777268752,1749741145777590153,1749741145777595819,1749741145777630734,1749741145772994879,0
48,1749741145782947265,1749741145782355835,1749741145782355835,1749741145782951931,16.2327,561.8201,33.9300,0.0735,-0.1033,-0.0937,0.6897,-3.6343,-7.8923,0.0000,0.0000,0.0000,0.0591,-0.1294,0.0189,0.0243,-0.0320,-0.0006,-0.0591,-1.7883,-0.1011,0.0002,-0.0001,-0.0001,0.0000,324458828,1749741145782546784,-0.0591,-1.7883,-0.1011,0.9999,0.0056,-0.0020,0.0095,0.0000,0.0000,0.0000,0.00000000,0.00000000,0.000,0.000,0.000,0.000,0.000,0,0,0.000,0.000,0.000,0.000,0.000,0,0,0,0,0,0,0,0.0000,0.0000,-0.0500,0.0000,0.0000,0.0000,0.0000,0.0000,0.0000,0.0000,0.0000,0.0000,0.0000,0.0000,0.0000,0.0000,0.0000,0.0000,0.0000,0.0000,0.0000,0.0000,0.0000,0.0000,0.0000,0.0000,0.0000,0.0000,0.0000,0.0000,0.0000,0.0000,0.0000,0.0000,-0.0500,0.2072,0.2072,0.2072,0.2072,1,5,1749741145782360252,1749741145777649067,1749741145782572158,1749741145782554992,1749741145782583907,1749741145782585574,1749741145782906933,1749741145782913100,1749741145782948431,1749741145777647192,0
49,1749741145787799110,1749741145787218430,1749741145787218430,1749741145787803776,16.2332,561.8565,33.9400,0.0352,-0.0479,-0.1076,-3.5708,3.5673,-10.2948,0.0000,0.0000,0.0000,0.0596,-0.1294,0.0187,0.0279,-0.0373,-0.0362,-0.0590,-1.7883,-0.1011,0.0010,-0.0000,-0.0002,0.0000,324467786,1749741145787399171,-0.0590,-1.7883,-0.1011,0.9999,0.0057,-0.0021,0.0094,0.0000,0.0000,0.0000,0.00000000,0.00000000,0.000,0.000,0.000,0.000,0.000,0,0,0.000,0.000,0.000,0.000,0.000,0,0,0,0,0,0,0,0.0000,0.0000,-0.0500,0.0000,0.0000,0.0000,0.0000,0.0000,0.0000,0.0000,0.0000,0.0000,0.0000,0.0000,0.0000,0.0000,0.0000,0.0000,0.0000,0.0000,0.0000,0.0000,0.0000,0.0000,0.0000,0.0000,0.0000,0.0000,0.0000,0.0000,0.0000,0.0000,0.0000,0.0000,-0.0500,0.2072,0.2072,0.2072,0.2072,1,5,1749741145787222680,1749741145783738601,1749741145787424045,1749741145787407504,1749741145787435461,1749741145787437211,1749741145787759028,1749741145787765028,1749741145787800276,1749741145782965722,0
50,1749741145793091100,1749741145792501587,1749741145792501587,1749741145793095766,16.2340,561.8565,33.9400,-0.0682,0.1023,0.1268,-0.3856,3.3377,-9.1377,0.0000,0.0000,0.0000,0.0588,-0.1292,0.0190,-0.0041,0.0092,0.0181,-0.0590,-1.7883,-0.1012,0.0004,-0.0005,-0.0006,0.0000,324475962,1749741145792692577,-0.0590,-1.7883,-0.1012,0.9999,0.0056,-0.0021,0.0095,0.0000,0.0000,0.0000,0.00000000,0.00000000,0.000,0.000,0.000,0.000,0.000,0,0,0.000,0.000,0.000,0.000,0.000,0,0,0,0,0,0,0,0.0000,0.0000,-0.0500,0.0000,0.0000,0.0000,0.0000,0.0000,0.0000,0.0000,0.0000,0.0000,0.0000,0.0000,0.0000,0.0000,0.0000,0.0000,0.0000,0.0000,0.0000,0.0000,0.0000,0.0000,0.0000,0.0000,0.0000,0.0000,0.0000,0.0000,0.0000,0.0000,0.0000,0.0000,-0.0500,0.2072,0.2072,0.2072,0.2072,1,5,1749741145792506003,1749741145787819984,1749741145792718326,1749741145792700869,1749741145792729534,1749741145792731201,1749741145793051851,1749741145793057560,1749741145793092266,1749741145787818109,0
51,1749741145797424553,1749741145796848082,1749741145796848082,1749741145797429261,16.2347,561.8565,33.9400,0.1161,-0.0458,0.0607,3.8247,-4.8689,-9.5696,0.0000,0.0000,0.0000,0.0590,-0.1293,0.0190,0.0360,-0.0091,0.0323,-0.0590,-1.7882,-0.1012,0.0008,0.0003,-0.0012,0.0000,324484067,1749741145797026323,-0.0590,-1.7882,-0.1012,0.9999,0.0056,-0.0020,0.0095,0.0000,0.0000,0.0000,0.00000000,0.00000000,0.000,0.000,0.000,0.000,0.000,0,0,0.000,0.000,0.000,0.000,0.000,0,0,0,0,0,0,0,0.0000,0.0000,-0.0500,0.0000,0.0000,0.0000,0.0000,0.0000,0.0000,0.0000,0.0000,0.0000,0.0000,0.0000,0.0000,0.0000,0.0000,0.0000,0.0000,0.0000,0.0000,0.0000,0.0000,0.0000,0.0000,0.0000,0.0000,0.0000,0.0000,0.0000,0.0000,0.0000,0.0000,0.0000,-0.0500,0.2072,0.2072,0.2072,0.2072,1,5,1749741145796852540,1749741145793110349,1749741145797052072,1749741145797034822,1749741145797063946,1749741145797065654,1749741145797385430,1749741145797391388,1749741145797425720,1749741145793108474,0
52,1749741145802503679,1749741145801999578,1749741145801999578,1749741145802508720,16.2361,561.8565,33.9400,0.0575,-0.1374,-0.2024,-4.8928,-1.9380,-10.7171,0.0000,0.0000,0.0000,0.0598,-0.1295,0.0190,0.0432,-0.0519,-0.0459,-0.0590,-1.7882,-0.1012,0.0008,0.0003,-0.0012,0.0000,324484067,1749741145797026323,-0.0590,-1.7882,-0.1012,0.9999,0.0056,-0.0020,0.0095,0.0000,0.0000,0.0000,0.00000000,0.00000000,0.000,0.000,0.000,0.000,0.000,0,0,0.000,0.000,0.000,0.000,0.000,0,0,0,0,0,0,0,0.0000,0.0000,-0.0500,0.0000,0.0000,0.0000,0.0000,0.0000,0.0000,0.0000,0.0000,0.0000,0.0000,0.0000,0.0000,0.0000,0.0000,0.0000,0.0000,0.0000,0.0000,0.0000,0.0000,0.0000,0.0000,0.0000,0.0000,0.0000,0.0000,0.0000,0.0000,0.0000,0.0000,0.0000,-0.0500,0.2072,0.2072,0.2072,0.2072,1,5,1749741145802004037,1749741145797444844,1749741145802059076,1749741145802046243,1749741145802070033,1749741145802071658,1749741145802464056,1749741145802469805,1749741145802504845,1749741145797442761,0
53,1749741145808044656,1749741145807455519,1749741145807455519,1749741145808049365,16.2376,561.8565,33.9400,-0.1055,0.0490,-0.0011,-3.6283,5.9217,-10.3282,0.0000,0.0000,0.0000,0.0594,-0.1296,0.0189,-0.0064,-0.0183,-0.0310,-0.0591,-1.7883,-0.1012,0.0003,-0.0002,-0.0009,0.0000,324492743,1749741145807645759,-0.0591,-1.7883,-0.1012,0.9999,0.0056,-0.0021,0.0095,0.0000,0.0000,0.0000,0.00000000,0.00000000,0.000,0.000,0.000,0.000,0.000,0,0,0.000,0.000,0.000,0.000,0.000,0,0,0,0,0,0,0,0.0000,0.0000,-0.0500,0.0000,0.0000,0.0000,0.0000,0.0000,0.0000,0.0000,0.0000,0.0000,0.0000,0.0000,0.0000,0.0000,0.0000,0.0000,0.0000,0.0000,0.0000,0.0000,0.0000,0.0000,0.0000,0.0000,0.0000,0.0000,0.0000,0.0000,0.0000,0.0000,0.0000,0.0000,-0.0500,0.2072,0.2072,0.2072,0.2072,1,5,1749741145807460018,1749741145802523678,1749741145807672300,1749741145807654301,1749741145807683341,1749741145807685007,1749741145808005283,1749741145808011033,1749741145808045865,1749741145802521511,0
54,1749741145812881335,1749741145812213743,1749741145812213743,1749741145812886044,16.2400,561.8565,33.9400,-0.0064,0.0927,0.2386,4.7658,-0.8781,-10.2352,0.0000,0.0000,0.0000,0.0586,-0.1294,0.0191,-0.0064,0.0187,0.0589,-0.0590,-1.7882,-0.1012,0.0011,0.0012,-0.0013,0.0000,324500903,1749741145812485897,-0.0590,-1.7882,-0.1012,0.9999,0.0056,-0.0020,0.0095,0.0000,0.0000,0.0000,0.00000000,0.00000000,0.000,0.000,0.000,0.000,0.000,0,0,0.000,0.000,0.000,0.000,0.000,0,0,0,0,0,0,0,0.0000,0.0000,-0.0500,0.0000,0.0000,0.0000,0.0000,0.0000,0.0000,0.0000,0.0000,0.0000,0.0000,0.0000,0.0000,0.0000,0.0000,0.0000,0.0000,0.0000,0.0000,0.0000,0.0000,0.0000,0.0000,0.0000,0.0000,0.0000,0.0000,0.0000,0.0000,0.0000,0.0000,0.0000,-0.0500,0.2072,0.2072,0.2072,0.2072,1,5,1749741145812218618,1749741145808064197,1749741145812509895,1749741145812494063,1749741145812520520,1749741145812522270,1749741145812842004,1749741145812847795,1749741145812882544,1749741145808062322,0
55,1749741145817716265,1749741145817281494,1749741145817281494,1749741145817720973,16.2431,561.8565,33.9400,0.1236,-0.1513,-0.1172,0.7137,-6.9146,-9.2642,0.0000,0.0000,0.0000,0.0593,-0.1295,0.0191,0.0369,-0.0379,0.0002,-0.0590,-1.7882,-0.1012,0.0011,0.0012,-0.0013,0.0000,324500903,1749741145812485897,-0.0590,-1.7882,-0.1012,0.9999,0.0056,-0.0020,0.0095,0.0000,0.0000,0.0000,0.00000000,0.00000000,0.000,0.000,0.000,0.000,0.000,0,0,0.000,0.000,0.000,0.000,0.000,0,0,0,0,0,0,0,0.0000,0.0000,-0.0500,0.0000,0.0000,0.0000,0.0000,0.0000,0.0000,0.0000,0.0000,0.0000,0.0000,0.0000,0.0000,0.0000,0.0000,0.0000,0.0000,0.0000,0.0000,0.0000,0.0000,0.0000,0.0000,0.0000,0.0000,0.0000,0.0000,0.0000,0.0000,0.0000,0.0000,0.0000,-0.0500,0.2072,0.2072,0.2072,0.2072,1,5,1749741145817285952,1749741145812900668,1749741145817341075,1749741145817327867,1749741145817351991,1749741145817353616,1749741145817677516,1749741145817683183,1749741145817717473,1749741145812898793,0
56,1749741145822257958,1749741145821596782,1749741145821596782,1749741145822262916,16.2456,561.8565,33.9400,-0.0011,-0.0234,-0.1321,-5.2137,4.4598,-9.6698,0.0000,0.0000,0.0000,0.0601,-0.1294,0.0187,0.0243,-0.0331,-0.0439,-0.0591,-1.7883,-0.1012,0.0006,0.0006,-0.0008,0.0000,324509095,1749741145821787564,-0.0591,-1.7883,-0.1012,0.9999,0.0056,-0.0020,0.0094,0.0000,0.0000,0.0000,0.00000000,0.00000000,0.000,0.000,0.000,0.000,0.000,0,0,0.000,0.000,0.000,0.000,0.000,0,0,0,0,0,0,0,0.0000,0.0000,-0.0500,0.0000,0.0000,0.0000,0.0000,0.0000,0.0000,0.0000,0.0000,0.0000,0.0000,0.0000,0.0000,0.0000,0.0000,0.0000,0.0000,0.0000,0.0000,0.0000,0.0000,0.0000,0.0000,0.0000,0.0000,0.0000,0.0000,0.0000,0.0000,0.0000,0.0000,0.0000,-0.0500,0.2072,0.2072,0.2072,0.2072,1,5,1749741145821601532,1749741145817735639,1749741145821813563,1749741145821795897,1749741145821825438,1749741145821827229,1749741145822218252,1749741145822223960,1749741145822259166,1749741145817733805,0
57,1749741145827584780,1749741145827176091,1749741145827176091,1749741145827589446,16.2480,561.8565,33.9400,-0.0724,0.1257,0.2354,0.7065,3.5362,-7.3030,0.0000,0.0000,0.0000,0.0590,-0.1292,0.0187,-0.0080,0.0198,0.0492,-0.0591,-1.7883,-0.1012,0.0006,0.0006,-0.0008,0.0000,324509095,1749741145821787564,-0.0591,-1.7883,-0.1012,0.9999,0.0056,-0.0020,0.0094,0.0000,0.0000,0.0000,0.00000000,0.00000000,0.000,0.000,0.000,0.000,0.000,0,0,0.000,0.000,0.000,0.000,0.000,0,0,0,0,0,0,0,0.0000,0.0000,-0.0500,0.0000,0.0000,0.0000,0.0000,0.0000,0.0000,0.0000,0.0000,0.0000,0.0000,0.0000,0.0000,0.0000,0.0000,0.0000,0.0000,0.0000,0.0000,0.0000,0.0000,0.0000,0.0000,0.0000,0.0000,0.0000,0.0000,0.0000,0.0000,0.0000,0.0000,0.0000,-0.0500,0.2072,0.2072,0.2072,0.2072,1,5,1749741145827179091,1749741145822278832,1749741145827215548,1749741145827202507,1749741145827226714,1749741145827228172,1749741145827547823,1749741145827552615,1749741145827585946,1749741145822276999,0
58,1749741145832617407,1749741145832026145,1749741145832026145,1749741145832622282,16.2506,561.8565,33.9400,0.1097,-0.0895,0.0948,4.7730,-5.5197,-7.7563,0.0000,0.0000,0.0000,0.0592,-0.1295,0.0189,0.0313,-0.0166,0.0644,-0.0590,-1.7882,-0.1012,0.0008,0.0011,-0.0010,0.0000,324517980,1749741145832217677,-0.0590,-1.7882,-0.1012,0.9999,0.0057,-0.0019,0.0094,0.0000,0.0000,0.0000,0.00000000,0.00000000,0.000,0.000,0.000,0.000,0.000,0,0,0.000,0.000,0.000,0.000,0.000,0,0,0,0,0,0,0,0.0000,0.0000,-0.0500,0.0000,0.0000,0.0000,0.0000,0.0000,0.0000,0.0000,0.0000,0.0000,0.0000,0.0000,0.0000,0.0000,0.0000,0.0000,0.0000,0.0000,0.0000,0.0000,0.0000,0.0000,0.0000,0.0000,0.0000,0.0000,0.0000,0.0000,0.0000,0.0000,0.0000,0.0000,-0.0500,0.2072,0.2072,0.2072,0.2072,1,5,1749741145832030686,1749741145827605612,1749741145832244051,1749741145832226510,1749741145832255383,1749741145832257133,1749741145832577493,1749741145832583659,1749741145832618616,1749741145827603737,0
59,1749741145837897940,1749741145837230597,1749741145837230597,1749741145837903064,16.2533,562.0776,33.9300,0.0117,-0.1108,-0.2557,-4.9143,1.0862,-11.4496,0.0000,0.0000,0.0000,0.0599,-0.1295,0.0183,0.0247,-0.0480,-0.0423,-0.0591,-1.7883,-0.1012,-0.0003,-0.0004,-0.0003,0.0000,324526265,1749741145837501792,-0.0591,-1.7883,-0.1012,0.9999,0.0056,-0.0020,0.0092,0.0000,0.0000,0.0000,0.00000000,0.00000000,0.000,0.000,0.000,0.000,0.000,0,0,0.000,0.000,0.000,0.000,0.000,0,0,0,0,0,0,0,0.0000,0.0000,-0.0500,0.0000,0.0000,0.0000,0.0000,0.0000,0.0000,0.0000,0.0000,0.0000,0.0000,0.0000,0.0000,0.0000,0.0000,0.0000,0.0000,0.0000,0.0000,0.0000,0.0000,0.0000,0.0000,0.0000,0.0000,0.0000,0.0000,0.0000,0.0000,0.0000,0.0000,0.0000,-0.0500,0.2072,0.2072,0.2072,0.2072,1,5,1749741145837235055,1749741145833306832,1749741145837525208,1749741145837509959,1749741145837536332,1749741145837538041,1749741145837858650,1749741145837864358,1749741145837899148,1749741145832635531,0
60,1749741145842560377,1749741145842060985,1749741145842060985,1749741145842565294,16.2550,562.0776,33.9300,-0.1289,0.1001,0.0415,-3.6402,6.5365,-11.4353,0.0000,0.0000,0.0000,0.0591,-0.1293,0.0183,-0.0265,0.0014,-0.0143,-0.0591,-1.7883,-0.1012,-0.0003,-0.0004,-0.0003,0.0000,324526265,1749741145837501792,-0.0591,-1.7883,-0.1012,0.9999,0.0056,-0.0020,0.0092,0.0000,0.0000,0.0000,0.00000000,0.00000000,0.000,0.000,0.000,0.000,0.000,0,0,0.000,0.000,0.000,0.000,0.000,0,0,0,0,0,0,0,0.0000,0.0000,-0.0500,0.0000,0.0000,0.0000,0.0000,0.0000,0.0000,0.0000,0.0000,0.0000,0.0000,0.0000,0.0000,0.0000,0.0000,0.0000,0.0000,0.0000,0.0000,0.0000,0.0000,0.0000,0.0000,0.0000,0.0000,0.0000,0.0000,0.0000,0.0000,0.0000,0.0000,0.0000,-0.0500,0.2072,0.2072,0.2072,0.2072,1,5,1749741145842065443,1749741145837917689,1749741145842183479,1749741145842169896,1749741145842195312,1749741145842197062,1749741145842520796,1749741145842526504,1749741145842561585,1749741145837915814,0
61,1749741145847856034,1749741145847249438,1749741145847249438,1749741145847860700,16.2555,562.0776,33.9300,0.0213,0.0352,0.2802,4.6389,-3.4693,-9.5075,0.0000,0.0000,0.0000,0.0583,-0.1294,0.0191,-0.0105,0.0126,0.0838,-0.0590,-1.7882,-0.1012,0.0003,0.0005,-0.0009,0.0000,324534389,1749741145847439721,-0.0590,-1.7882,-0.1012,0.9999,0.0057,-0.0019,0.0096,0.0000,0.0000,0.0000,0.00000000,0.00000000,0.000,0.000,0.000,0.000,0.000,0,0,0.000,0.000,0.000,0.000,0.000,0,0,0,0,0,0,0,0.0000,0.0000,-0.0500,0.0000,0.0000,0.0000,0.0000,0.0000,0.0000,0.0000,0.0000,0.0000,0.0000,0.0000,0.0000,0.0000,0.0000,0.0000,0.0000,0.0000,0.0000,0.0000,0.0000,0.0000,0.0000,0.0000,0.0000,0.0000,0.0000,0.0000,0.0000,0.0000,0.0000,0.0000,-0.0500,0.2072,0.2072,0.2072,0.2072,1,5,1749741145847253938,1749741145842580668,1749741145847466303,1749741145847448345,1749741145847477344,1749741145847478969,1749741145847817285,1749741145847822369,1749741145847857200,1749741145842578543,0
